"station_id","name","lat","lon","capacity","num_bikes_available","num_docks_available","land","stadt","anbieter","timestamp"
"4728239","Kurt-Schumacher-Ring (Campus Ost)",50.080828,8.21809,12,20,0,"DE","Wiesbaden","nextbike","2026-06-25 14:31:38"
"4775065","Bertramstraße (Campus)",50.07956,8.23052,NA,19,0,"DE","Wiesbaden","nextbike","2026-06-25 14:31:38"
"4775074","Dern’sches Gelände",50.080666,8.24349,NA,7,0,"DE","Wiesbaden","nextbike","2026-06-25 14:31:38"
"4775082","Dürerplatz",50.08564,8.225514,NA,7,0,"DE","Wiesbaden","nextbike","2026-06-25 14:31:38"
"4775087","Eltviller Straße",50.076546,8.226448,NA,6,0,"DE","Wiesbaden","nextbike","2026-06-25 14:31:38"
"4775102","Friedrich-Naumann-Straße (Studierendenwohnheim)",50.082972,8.21962,NA,3,0,"DE","Wiesbaden","nextbike","2026-06-25 14:31:38"
"4775108","Gneisenaustraße",50.079672,8.224286,NA,6,0,"DE","Wiesbaden","nextbike","2026-06-25 14:31:38"
"4775113","Herderstraße",50.074514,8.233523,NA,1,0,"DE","Wiesbaden","nextbike","2026-06-25 14:31:38"
"4775117","Kurt-Schumacher-Ring (Campus Mitte)",50.080501,8.216786,4,11,0,"DE","Wiesbaden","nextbike","2026-06-25 14:31:38"
"4775126","Platz der Deutschen Einheit",50.07978,8.2347,NA,3,0,"DE","Wiesbaden","nextbike","2026-06-25 14:31:38"
"4775132","Saalgasse ",50.08674,8.24166,NA,6,0,"DE","Wiesbaden","nextbike","2026-06-25 14:31:38"
"4775141","Sedanplatz",50.082866,8.228803,NA,5,0,"DE","Wiesbaden","nextbike","2026-06-25 14:31:38"
"4775153","Unter den Eichen (Campus) ",50.0957,8.21618,8,11,0,"DE","Wiesbaden","nextbike","2026-06-25 14:31:38"
"4775162","Webergasse",50.08464,8.2426,NA,7,0,"DE","Wiesbaden","nextbike","2026-06-25 14:31:38"
"4880650","Loreleiring",50.07763,8.22064,NA,0,0,"DE","Wiesbaden","nextbike","2026-06-25 14:31:38"
"5029668","Raiffeisenplatz",50.067305,8.273746,NA,0,0,"DE","Wiesbaden","nextbike","2026-06-25 14:31:38"
"5029742","Abraham-Lincoln-Park",50.06291,8.27154,NA,2,0,"DE","Wiesbaden","nextbike","2026-06-25 14:31:38"
"5301942","Frankfurter Straße",50.073805,8.255228,NA,3,0,"DE","Wiesbaden","nextbike","2026-06-25 14:31:38"
"53173847","Neroberg Talstation",50.094966,8.226126,NA,0,0,"DE","Wiesbaden","nextbike","2026-06-25 14:31:38"
"53279454","Nerotal",50.091216,8.236082,NA,0,0,"DE","Wiesbaden","nextbike","2026-06-25 14:31:38"
"53697507","Mainzer Straße",50.058507,8.255213,NA,5,0,"DE","Wiesbaden","nextbike","2026-06-25 14:31:38"
"53699259","Friedrich-Ebert-Allee",50.076204,8.24563,NA,3,0,"DE","Wiesbaden","nextbike","2026-06-25 14:31:38"
"53701912","Adolfsallee",50.076168,8.239901,NA,6,0,"DE","Wiesbaden","nextbike","2026-06-25 14:31:38"
"54069261","Albrecht-Dürer-Anlagen",50.089468,8.220322,NA,1,0,"DE","Wiesbaden","nextbike","2026-06-25 14:31:38"
"87795417","Coulinstraße",50.083286,8.236345,NA,4,0,"DE","Wiesbaden","nextbike","2026-06-25 14:31:38"
"87795984","Neugasse",50.081525,8.23976,NA,2,0,"DE","Wiesbaden","nextbike","2026-06-25 14:31:38"
"87796213","Luisenplatz",50.079147,8.240044,NA,1,0,"DE","Wiesbaden","nextbike","2026-06-25 14:31:38"
"87796369","Bahnhofstraße",50.072318,8.242933,NA,2,0,"DE","Wiesbaden","nextbike","2026-06-25 14:31:38"
"87796472","Hauptbahnhof",50.071337,8.242628,NA,12,0,"DE","Wiesbaden","nextbike","2026-06-25 14:31:38"
"87796596","Konrad-Adenauer-Straße/ Schiersteiner Straße",50.071167,8.226985,NA,2,0,"DE","Wiesbaden","nextbike","2026-06-25 14:31:38"
"87796717","Karlsbader Platz",50.074863,8.223887,NA,5,0,"DE","Wiesbaden","nextbike","2026-06-25 14:31:38"
"87796883","Frankfurter Straße/ Humboldtstraße",50.07816,8.249343,NA,1,0,"DE","Wiesbaden","nextbike","2026-06-25 14:31:38"
"87797085","Gustav-Stresemann-Ring",50.071756,8.252207,NA,2,0,"DE","Wiesbaden","nextbike","2026-06-25 14:31:38"
"126084480","SOKA Bau",50.069332,8.253932,NA,8,0,"DE","Wiesbaden","nextbike","2026-06-25 14:31:38"
"143097087","Alter Schlachthof",50.06673,8.247916,NA,4,0,"DE","Wiesbaden","nextbike","2026-06-25 14:31:38"
"608535280","Amtsgericht / Klinikum",48.182119,11.258064,NA,8,0,"DE","Muenchen","nextbike","2026-06-25 14:31:38"
"608535281","Buchenau Bahnhof",48.160556,11.2244,NA,10,0,"DE","Muenchen","nextbike","2026-06-25 14:31:38"
"608535282","Fürstenfeld",48.171345,11.247608,NA,3,0,"DE","Muenchen","nextbike","2026-06-25 14:31:38"
"608535283","Fürstenfeldbruck Bahnhof",48.172396,11.262272,NA,12,0,"DE","Muenchen","nextbike","2026-06-25 14:31:38"
"608535284","Hauptplatz",48.177894,11.255632,NA,6,0,"DE","Muenchen","nextbike","2026-06-25 14:31:38"
"608535285","Kapellenstraße",48.182509,11.253274,NA,3,0,"DE","Muenchen","nextbike","2026-06-25 14:31:38"
"608535286","Klosterstraße",48.174272,11.241322,NA,9,0,"DE","Muenchen","nextbike","2026-06-25 14:31:38"
"608535287","Landratsamt",48.176677,11.260783,NA,7,0,"DE","Muenchen","nextbike","2026-06-25 14:31:38"
"608535288","Pucher Meer (Parkplatz)",48.18776,11.233439,NA,6,0,"DE","Muenchen","nextbike","2026-06-25 14:31:38"
"608535289","Rudolf-Diesel-Ring",48.192993,11.250284,NA,2,0,"DE","Muenchen","nextbike","2026-06-25 14:31:38"
"608535290","St. Bernhard",48.172186,11.232778,NA,2,0,"DE","Muenchen","nextbike","2026-06-25 14:31:38"
"608535291","Theodor-Heuss-Straße",48.181375,11.242322,NA,5,0,"DE","Muenchen","nextbike","2026-06-25 14:31:38"
"608535292","Alfons-Baumann-Straße",48.122496,11.353216,NA,9,0,"DE","Muenchen","nextbike","2026-06-25 14:31:38"
"608535293","An den Gemeindewiesen",48.140383,11.359614,NA,3,0,"DE","Muenchen","nextbike","2026-06-25 14:31:38"
"608535294","Bertha-von-Suttner-Straße / Theodor-Heuss-Straße",48.115044,11.3555,NA,5,0,"DE","Muenchen","nextbike","2026-06-25 14:31:38"
"608535295","GEP",48.137313,11.373433,NA,7,0,"DE","Muenchen","nextbike","2026-06-25 14:31:38"
"608535296","Germering-Unterpfaffenhofen Bahnhof",48.128957,11.36373,NA,6,0,"DE","Muenchen","nextbike","2026-06-25 14:31:38"
"608535297","Gewerbegebiet Nord",48.139178,11.370889,NA,4,0,"DE","Muenchen","nextbike","2026-06-25 14:31:38"
"608535298","Hallenbad",48.133156,11.372576,NA,3,0,"DE","Muenchen","nextbike","2026-06-25 14:31:38"
"608535299","Harthaus Bahnhof",48.133642,11.386486,NA,9,0,"DE","Muenchen","nextbike","2026-06-25 14:31:38"
"608535300","St.-Jakob-Straße",48.130562,11.351484,NA,5,0,"DE","Muenchen","nextbike","2026-06-25 14:31:38"
"608535301","Königsberger Straße",48.136733,11.383645,NA,6,0,"DE","Muenchen","nextbike","2026-06-25 14:31:38"
"608535302","Oskar-von-Miller-Straße",48.131863,11.371173,NA,4,0,"DE","Muenchen","nextbike","2026-06-25 14:31:38"
"608535303","Otto-Wagner-Straße Nord",48.124643,11.366397,NA,10,0,"DE","Muenchen","nextbike","2026-06-25 14:31:38"
"608535304","Rathaus",48.134827,11.362811,NA,6,0,"DE","Muenchen","nextbike","2026-06-25 14:31:38"
"608535305","Streiflacher Straße",48.128287,11.373914,NA,7,0,"DE","Muenchen","nextbike","2026-06-25 14:31:38"
"608535306","Grafrath Bahnhof",48.132405,11.152776,NA,4,0,"DE","Muenchen","nextbike","2026-06-25 14:31:38"
"608535307","Am Sandberg",48.18344,11.387938,NA,5,0,"DE","Muenchen","nextbike","2026-06-25 14:31:38"
"608535308","Am Zillerhof",48.186275,11.38352,NA,6,0,"DE","Muenchen","nextbike","2026-06-25 14:31:38"
"608535309","Beislerstraße",48.179444,11.380757,NA,9,0,"DE","Muenchen","nextbike","2026-06-25 14:31:38"
"608535310","Gröbenzell Bahnhof Süd / Kirchenstraße",48.194822,11.372656,NA,12,0,"DE","Muenchen","nextbike","2026-06-25 14:31:38"
"608535311","Sportzentrum",48.193575,11.38457,NA,4,0,"DE","Muenchen","nextbike","2026-06-25 14:31:38"
"608535312","Babenrieder Straße",48.162529,11.167998,NA,8,0,"DE","Muenchen","nextbike","2026-06-25 14:31:38"
"608535313","Schöngeising Bahnhof Nord",48.147073,11.190071,NA,5,0,"DE","Muenchen","nextbike","2026-06-25 14:31:38"
"608535314","Am Strasserwinkel",48.215347,11.270064,NA,5,0,"DE","Muenchen","nextbike","2026-06-25 14:31:38"
"608535315","Ganghoferstraße",48.214342,11.287288,NA,9,0,"DE","Muenchen","nextbike","2026-06-25 14:31:38"
"608535316","Gernlinden Bahnhof",48.213157,11.298278,NA,10,0,"DE","Muenchen","nextbike","2026-06-25 14:31:38"
"608535317","Hans-Gruber-Platz",48.210856,11.2967,NA,5,0,"DE","Muenchen","nextbike","2026-06-25 14:31:38"
"608535318","Maisach Bahnhof",48.214565,11.256503,NA,11,0,"DE","Muenchen","nextbike","2026-06-25 14:31:38"
"608535319","Otto-Hahn-Straße",48.212351,11.244004,NA,5,0,"DE","Muenchen","nextbike","2026-06-25 14:31:38"
"608535320","Bürgerhaus",48.205971,11.151883,NA,5,0,"DE","Muenchen","nextbike","2026-06-25 14:31:38"
"608535321","Freizeitpark Mammendorf (Freibad)",48.202536,11.171189,NA,2,0,"DE","Muenchen","nextbike","2026-06-25 14:31:38"
"608535322","Mammendorf Bahnhof",48.216556,11.174148,NA,5,0,"DE","Muenchen","nextbike","2026-06-25 14:31:38"
"608535323","Pfarrkirche",48.207825,11.164622,NA,10,0,"DE","Muenchen","nextbike","2026-06-25 14:31:38"
"608535324","Auf der Insel",48.206662,11.327017,NA,6,0,"DE","Muenchen","nextbike","2026-06-25 14:31:38"
"608535325","Esting Bahnhof",48.212724,11.318829,NA,10,0,"DE","Muenchen","nextbike","2026-06-25 14:31:38"
"608535326","Ferdinandstraße",48.216143,11.346824,NA,6,0,"DE","Muenchen","nextbike","2026-06-25 14:31:38"
"608535327","Gewerbepark Süd",48.227101,11.334508,NA,7,0,"DE","Muenchen","nextbike","2026-06-25 14:31:38"
"608535328","Heimgartenstraße",48.196859,11.324711,NA,6,0,"DE","Muenchen","nextbike","2026-06-25 14:31:38"
"608535329","Kapellenweg",48.225455,11.343241,NA,7,0,"DE","Muenchen","nextbike","2026-06-25 14:31:38"
"608535330","Kriegerdenkmal",48.200154,11.309124,NA,4,0,"DE","Muenchen","nextbike","2026-06-25 14:31:38"
"608535331","Olching Bahnhof",48.209717,11.334807,NA,9,0,"DE","Muenchen","nextbike","2026-06-25 14:31:38"
"608535332","Alpenstraße",48.179304,11.36113,NA,6,0,"DE","Muenchen","nextbike","2026-06-25 14:31:38"
"608535333","Birkenstraße",48.174638,11.359112,NA,3,0,"DE","Muenchen","nextbike","2026-06-25 14:31:38"
"608535334","Boschstraße",48.170484,11.363384,NA,5,0,"DE","Muenchen","nextbike","2026-06-25 14:31:38"
"608535335","Edelweißstraße / PUC",48.169771,11.345956,NA,8,0,"DE","Muenchen","nextbike","2026-06-25 14:31:38"
"608535336","Friedenstraße",48.18263,11.371141,NA,5,0,"DE","Muenchen","nextbike","2026-06-25 14:31:38"
"608535337","Friedhof Schopflach",48.163649,11.335233,NA,7,0,"DE","Muenchen","nextbike","2026-06-25 14:31:38"
"608535338","Kriegerdenkmal",48.147102,11.347664,NA,11,0,"DE","Muenchen","nextbike","2026-06-25 14:31:38"
"608535339","Laurenzer Grundschule",48.152464,11.341765,NA,4,0,"DE","Muenchen","nextbike","2026-06-25 14:31:38"
"608535340","Lilienthalstraße",48.161214,11.342048,NA,5,0,"DE","Muenchen","nextbike","2026-06-25 14:31:38"
"608535341","Nordendstraße",48.176307,11.365722,NA,5,0,"DE","Muenchen","nextbike","2026-06-25 14:31:38"
"608535342","Puchheim Bahnhof Nord",48.172526,11.353002,NA,11,0,"DE","Muenchen","nextbike","2026-06-25 14:31:38"
"608535343","Puchheim Bahnhof Süd",48.171984,11.351683,NA,5,0,"DE","Muenchen","nextbike","2026-06-25 14:31:38"
"608535344","Sportzentrum",48.179592,11.354255,NA,4,0,"DE","Muenchen","nextbike","2026-06-25 14:31:38"
"608535345","Rathaus",48.13893,11.206623,NA,3,0,"DE","Muenchen","nextbike","2026-06-25 14:31:38"
"608535346","Schöngeising Bahnhof",48.146438,11.191714,NA,2,0,"DE","Muenchen","nextbike","2026-06-25 14:31:38"
"608535256","Eching Bahnhof",48.303429,11.618548,NA,3,0,"DE","Muenchen","nextbike","2026-06-25 14:31:38"
"608535257","Bürgersaal",48.281144,11.673717,4,9,0,"DE","Muenchen","nextbike","2026-06-25 14:31:38"
"608535258","Bergstrasse",48.323108,11.599879,NA,3,0,"DE","Muenchen","nextbike","2026-06-25 14:31:38"
"608535259","Rathaus",48.297144,11.622322,NA,2,0,"DE","Muenchen","nextbike","2026-06-25 14:31:38"
"608535260","Am Isardamm",48.277602,11.673041,NA,4,0,"DE","Muenchen","nextbike","2026-06-25 14:31:38"
"608535261","Hollerner See",48.283376,11.606952,NA,6,0,"DE","Muenchen","nextbike","2026-06-25 14:31:38"
"608535262","IKEA",48.303778,11.634774,NA,4,0,"DE","Muenchen","nextbike","2026-06-25 14:31:38"
"608535263","Hotel Olymp",48.298312,11.624925,NA,3,0,"DE","Muenchen","nextbike","2026-06-25 14:31:38"
"608535265","Rathaus",48.318164,11.745158,NA,4,0,"DE","Muenchen","nextbike","2026-06-25 14:31:38"
"608535266","Sportpark",48.322114,11.737419,NA,3,0,"DE","Muenchen","nextbike","2026-06-25 14:31:38"
"608535267","Nachbarschaftshilfe",48.310556,11.749206,NA,3,0,"DE","Muenchen","nextbike","2026-06-25 14:31:38"
"608535268","S-Bahn Hallbergmoos",48.308833,11.714621,NA,5,0,"DE","Muenchen","nextbike","2026-06-25 14:31:38"
"608535270","Altes Rathaus",48.327697,11.752451,NA,3,0,"DE","Muenchen","nextbike","2026-06-25 14:31:38"
"608535271","MABP Surftown",48.332461,11.731651,NA,5,0,"DE","Muenchen","nextbike","2026-06-25 14:31:38"
"608535272","Neufahrn Bahnhof",48.320835,11.660394,NA,11,0,"DE","Muenchen","nextbike","2026-06-25 14:31:38"
"608535273","Rathaus",48.317133,11.662304,NA,9,0,"DE","Muenchen","nextbike","2026-06-25 14:31:38"
"608535274","Mintraching, Spielplatz Feuerwehr",48.318879,11.68717,NA,3,0,"DE","Muenchen","nextbike","2026-06-25 14:31:38"
"608535276","Lena-Christ-Straße",48.309108,11.665278,NA,4,0,"DE","Muenchen","nextbike","2026-06-25 14:31:38"
"608535277","Sport- und Freizeitpark",48.322081,11.672788,NA,3,0,"DE","Muenchen","nextbike","2026-06-25 14:31:38"
"608535278","Zeppelinstraße",48.31436,11.650398,NA,1,0,"DE","Muenchen","nextbike","2026-06-25 14:31:38"
"608535279","Gewerbepark Römerweg",48.330098,11.692431,NA,5,0,"DE","Muenchen","nextbike","2026-06-25 14:31:38"
"608535378","Heidenheimer Straße",48.247327,11.612108,NA,5,0,"DE","Muenchen","nextbike","2026-06-25 14:31:38"
"608535379","Carl-von-Linde-Straße (Garching-Hochbrück)",48.251581,11.606968,NA,3,0,"DE","Muenchen","nextbike","2026-06-25 14:31:38"
"608535380","Dieselstraße (Garching-Hochbrück)",48.254889,11.617622,NA,0,0,"DE","Muenchen","nextbike","2026-06-25 14:31:38"
"608535381","Garchinger See (Garching)",48.261523,11.640456,NA,5,0,"DE","Muenchen","nextbike","2026-06-25 14:31:38"
"608535383","Jahnstraße (Garching-Hochbrück)",48.247635,11.608093,NA,5,0,"DE","Muenchen","nextbike","2026-06-25 14:31:38"
"608535384","Lilienthalstraße (Garching-Hochbrück)",48.252431,11.620245,NA,6,0,"DE","Muenchen","nextbike","2026-06-25 14:31:38"
"608535385","Maibaumplatz (Garching)",48.249634,11.653183,NA,15,0,"DE","Muenchen","nextbike","2026-06-25 14:31:38"
"608535386","Maier-Leibnitz-Straße (Garching)",48.24993,11.64571,NA,11,0,"DE","Muenchen","nextbike","2026-06-25 14:31:38"
"608535387","Parkring Ost (Garching)",48.251713,11.637284,NA,3,0,"DE","Muenchen","nextbike","2026-06-25 14:31:38"
"608535388","Parkring West (Garching)",48.252165,11.633886,NA,10,0,"DE","Muenchen","nextbike","2026-06-25 14:31:38"
"608535389","Professor-Angermair-Ring (Garching)",48.245103,11.655635,NA,7,0,"DE","Muenchen","nextbike","2026-06-25 14:31:38"
"608535390","Siemens/SAP (Garching Forschungszentrum)",48.264493,11.661396,NA,5,0,"DE","Muenchen","nextbike","2026-06-25 14:31:38"
"608535391","U-Bahnhof (Garching Forschungszentrum)",48.264969,11.671454,NA,6,0,"DE","Muenchen","nextbike","2026-06-25 14:31:38"
"608535392","Campus West (Garching Forschungszentrum)",48.263358,11.665104,NA,14,0,"DE","Muenchen","nextbike","2026-06-25 14:31:38"
"608535393","Lichtenbergstraße (Garching Forschungszentrum)",48.268109,11.669114,NA,16,0,"DE","Muenchen","nextbike","2026-06-25 14:31:38"
"608535394","U-Bahnhof (P+R) (Garching-Hochbrück)",48.248359,11.631394,NA,20,0,"DE","Muenchen","nextbike","2026-06-25 14:31:38"
"608535395","Untere Strassäcker (Garching)",48.257185,11.654569,NA,10,0,"DE","Muenchen","nextbike","2026-06-25 14:31:38"
"608535396","Voithstraße (Garching-Hochbrück)",48.250049,11.612699,NA,5,0,"DE","Muenchen","nextbike","2026-06-25 14:31:38"
"608535440","Bahnhof Nord (Ismaning)",48.226437,11.679748,NA,7,0,"DE","Muenchen","nextbike","2026-06-25 14:31:38"
"608535441","Bahnhof Süd (Ismaning)",48.225292,11.678691,NA,2,0,"DE","Muenchen","nextbike","2026-06-25 14:31:38"
"608535442","Oskar-Messter-Straße (Ismaning)",48.233479,11.680209,NA,5,0,"DE","Muenchen","nextbike","2026-06-25 14:31:38"
"608535443","Carl-Zeiss-Ring (Ismaning)",48.236072,11.67964,NA,4,0,"DE","Muenchen","nextbike","2026-06-25 14:31:38"
"608535444","Fischerhäuser (Ismaning)",48.251724,11.69419,NA,9,0,"DE","Muenchen","nextbike","2026-06-25 14:31:38"
"608535445","Wasserturm (Ismaning)",48.220403,11.665488,NA,6,0,"DE","Muenchen","nextbike","2026-06-25 14:31:38"
"608535446","AGROB Süd (Ismaning)",48.208313,11.658857,NA,5,0,"DE","Muenchen","nextbike","2026-06-25 14:31:38"
"608535447","Mayerbacherstraße (Ismaning)",48.228368,11.684676,NA,2,0,"DE","Muenchen","nextbike","2026-06-25 14:31:38"
"608535461","Helmholtz Zentrum (Oberschleißheim)",48.219933,11.589283,NA,9,0,"DE","Muenchen","nextbike","2026-06-25 14:31:38"
"608535462","Bahnhof Oberschleißheim",48.257973,11.558038,NA,5,0,"DE","Muenchen","nextbike","2026-06-25 14:31:38"
"608535463","Veterinärstraße",48.248642,11.549747,NA,6,0,"DE","Muenchen","nextbike","2026-06-25 14:31:38"
"608535464","Schloss Oberschleißheim",48.250599,11.561043,NA,6,0,"DE","Muenchen","nextbike","2026-06-25 14:31:38"
"608535491","Am Bahnhof (S)",48.189293,11.645839,NA,8,0,"DE","Muenchen","nextbike","2026-06-25 14:31:38"
"608535492","Feringasee (Ost)",48.191728,11.677217,NA,1,0,"DE","Muenchen","nextbike","2026-06-25 14:31:38"
"608535493","Leinthaler Brücke",48.183,11.632371,NA,4,0,"DE","Muenchen","nextbike","2026-06-25 14:31:38"
"608535494","Poschinger Weiher",48.200971,11.641153,NA,3,0,"DE","Muenchen","nextbike","2026-06-25 14:31:38"
"608535495","Parkhaus Dieselstraße",48.185951,11.650884,NA,4,0,"DE","Muenchen","nextbike","2026-06-25 14:31:38"
"608535496","Parkhaus Bürgerfestplatz",48.192544,11.655237,NA,5,0,"DE","Muenchen","nextbike","2026-06-25 14:31:38"
"608535497","Bauhofstraße",48.201223,11.650217,NA,4,0,"DE","Muenchen","nextbike","2026-06-25 14:31:38"
"608535498","Fichtenstraße",48.19779,11.651963,NA,5,0,"DE","Muenchen","nextbike","2026-06-25 14:31:38"
"608535499","Blumenstraße",48.195136,11.646904,NA,4,0,"DE","Muenchen","nextbike","2026-06-25 14:31:38"
"608535500","Bürgerhaus",48.191709,11.639557,NA,6,0,"DE","Muenchen","nextbike","2026-06-25 14:31:38"
"608535501","Föhringer Allee",48.187134,11.641244,NA,4,0,"DE","Muenchen","nextbike","2026-06-25 14:31:38"
"608535502","Feringastraße Ost",48.178157,11.635993,NA,5,0,"DE","Muenchen","nextbike","2026-06-25 14:31:38"
"608535503","Apianstraße",48.175036,11.639062,NA,5,0,"DE","Muenchen","nextbike","2026-06-25 14:31:38"
"608535504","Feringastraße",48.179985,11.631105,NA,4,0,"DE","Muenchen","nextbike","2026-06-25 14:31:38"
"608535505","Feringasee (West)",48.191295,11.664523,NA,5,0,"DE","Muenchen","nextbike","2026-06-25 14:31:38"
"608535516","Unterschleißheim (S) Ost",48.272692,11.568468,NA,5,0,"DE","Muenchen","nextbike","2026-06-25 14:31:38"
"608535517","Unterschleißheim (S) West",48.273039,11.56758,NA,4,0,"DE","Muenchen","nextbike","2026-06-25 14:31:38"
"608535518","Unterschleißheim (S) St.-Benedikt-Straße",48.274712,11.569599,NA,6,0,"DE","Muenchen","nextbike","2026-06-25 14:31:38"
"608535519","Unterschleißheim (S) Berglstraße",48.275193,11.56869,NA,4,0,"DE","Muenchen","nextbike","2026-06-25 14:31:38"
"608535520","Lohhof (S) Süd",48.287895,11.581118,NA,5,0,"DE","Muenchen","nextbike","2026-06-25 14:31:38"
"608535521","Lohhof (S) Nord",48.28808,11.580679,NA,7,0,"DE","Muenchen","nextbike","2026-06-25 14:31:38"
"608535522","Sportpark",48.270009,11.585583,NA,7,0,"DE","Muenchen","nextbike","2026-06-25 14:31:38"
"608535523","Altes Rathaus",48.281902,11.576054,NA,6,0,"DE","Muenchen","nextbike","2026-06-25 14:31:38"
"608535524","Johann-Schmid-Straße",48.278358,11.581606,NA,6,0,"DE","Muenchen","nextbike","2026-06-25 14:31:38"
"608535525","Riedmoos",48.268979,11.533116,NA,4,0,"DE","Muenchen","nextbike","2026-06-25 14:31:38"
"608535526","Unterschleißheimer See",48.286179,11.552244,NA,4,0,"DE","Muenchen","nextbike","2026-06-25 14:31:38"
"608535527","Kiebitzstraße",48.28043,11.587453,NA,6,0,"DE","Muenchen","nextbike","2026-06-25 14:31:38"
"608535528","Mallertshoffener Straße",48.262584,11.589574,NA,7,0,"DE","Muenchen","nextbike","2026-06-25 14:31:38"
"608535529","Am Weiher",48.280435,11.556115,NA,1,0,"DE","Muenchen","nextbike","2026-06-25 14:31:38"
"608535530","Stadtwerke Unterschleißheim",48.283693,11.572017,NA,5,0,"DE","Muenchen","nextbike","2026-06-25 14:31:38"
"608535531","Emmy-Noether-Ring Business Campus",48.275469,11.561265,NA,5,0,"DE","Muenchen","nextbike","2026-06-25 14:31:38"
"608535532","Röntgenstraße",48.282397,11.566866,NA,4,0,"DE","Muenchen","nextbike","2026-06-25 14:31:38"
"608535533","Ohmstraße",48.287158,11.570431,NA,5,0,"DE","Muenchen","nextbike","2026-06-25 14:31:38"
"608535534","Ballhausforum",48.284271,11.564689,NA,6,0,"DE","Muenchen","nextbike","2026-06-25 14:31:38"
"608535537","Alfred-Nobel-Straße Business Campus",48.276502,11.560718,NA,3,0,"DE","Muenchen","nextbike","2026-06-25 14:31:38"
"608535398","Bahnhof (Gräfelfing)",48.121098,11.425649,NA,6,0,"DE","Muenchen","nextbike","2026-06-25 14:31:38"
"608535399","Bahnhof Lochham (Gräfelfing)",48.129418,11.430742,NA,2,0,"DE","Muenchen","nextbike","2026-06-25 14:31:38"
"608535400","Lochhamer Schlag (Gräfelfing)",48.122026,11.451154,NA,3,0,"DE","Muenchen","nextbike","2026-06-25 14:31:38"
"608535402","Würmtalstraße (Gräfelfing)",48.115415,11.440033,NA,3,0,"DE","Muenchen","nextbike","2026-06-25 14:31:38"
"608535403","Kirchweg (Gräfelfing)",48.125229,11.445698,NA,2,0,"DE","Muenchen","nextbike","2026-06-25 14:31:38"
"608535404","Doemens (Gräfelfing)",48.120768,11.446022,NA,2,0,"DE","Muenchen","nextbike","2026-06-25 14:31:38"
"608535405","Derbolfinger Platz (Grünwald)",48.041865,11.523734,NA,9,0,"DE","Muenchen","nextbike","2026-06-25 14:31:38"
"608535406","Bavariafilmplatz (Grünwald)",48.067423,11.546563,NA,6,0,"DE","Muenchen","nextbike","2026-06-25 14:31:38"
"608535407","Bavariafilmstraße (Grünwald)",48.065753,11.554089,NA,8,0,"DE","Muenchen","nextbike","2026-06-25 14:31:38"
"608535408","Parkplatz (Grünwald)",48.055074,11.540914,NA,5,0,"DE","Muenchen","nextbike","2026-06-25 14:31:38"
"608535409","Ludwig-Thoma-Straße (Grünwald)",48.049592,11.535365,NA,6,0,"DE","Muenchen","nextbike","2026-06-25 14:31:38"
"608535410","Musikschule (Grünwald)",48.050489,11.533111,NA,5,0,"DE","Muenchen","nextbike","2026-06-25 14:31:38"
"608535411","Freizeitpark (Grünwald)",48.049033,11.52849,NA,6,0,"DE","Muenchen","nextbike","2026-06-25 14:31:38"
"608535412","Laufzorner Straße (Grünwald)",48.036067,11.528432,NA,9,0,"DE","Muenchen","nextbike","2026-06-25 14:31:38"
"608535413","Josef-Sammer-Straße (Grünwald)",48.039208,11.534973,NA,6,0,"DE","Muenchen","nextbike","2026-06-25 14:31:38"
"608535414","Wörnbrunn (Grünwald)",48.038854,11.548214,NA,5,0,"DE","Muenchen","nextbike","2026-06-25 14:31:38"
"608535415","Lil-Dagover-Ring (Grünwald)",48.064798,11.556074,NA,1,0,"DE","Muenchen","nextbike","2026-06-25 14:31:38"
"608535416","Tölzer Straße (Grünwald)",48.034844,11.521349,NA,3,0,"DE","Muenchen","nextbike","2026-06-25 14:31:38"
"608535417","Robert-Koch-Straße (Grünwald)",48.062765,11.544919,NA,7,0,"DE","Muenchen","nextbike","2026-06-25 14:31:38"
"608535418","Haus der Begegnung (Grünwald)",48.0388,11.527856,NA,8,0,"DE","Muenchen","nextbike","2026-06-25 14:31:38"
"608535419","Martin-Kneidl-Grundschule (Grünwald)",48.044656,11.524422,NA,5,0,"DE","Muenchen","nextbike","2026-06-25 14:31:38"
"608535420","Bahnhof Süd (Haar)",48.110711,11.731274,NA,8,0,"DE","Muenchen","nextbike","2026-06-25 14:31:38"
"608535421","Bahnhof Nord (Haar)",48.111714,11.730938,NA,11,0,"DE","Muenchen","nextbike","2026-06-25 14:31:38"
"608535422","Ferd.-Kobell-Straße (Haar)",48.103411,11.722933,NA,2,0,"DE","Muenchen","nextbike","2026-06-25 14:31:38"
"608535423","Hans-Stießberger-Straße (Haar)",48.110938,11.715021,NA,3,0,"DE","Muenchen","nextbike","2026-06-25 14:31:38"
"608535424","Jagdfeldhochhaus (Haar)",48.1083,11.723526,NA,4,0,"DE","Muenchen","nextbike","2026-06-25 14:31:38"
"608535425","Waldluststraße (Haar)",48.104181,11.729069,NA,4,0,"DE","Muenchen","nextbike","2026-06-25 14:31:38"
"608535426","Ottendichl Kirche (Ottendichl)",48.12692,11.741225,NA,6,0,"DE","Muenchen","nextbike","2026-06-25 14:31:38"
"608535427","Salmdorf Kirche (Salmdorf)",48.130671,11.716349,NA,7,0,"DE","Muenchen","nextbike","2026-06-25 14:31:38"
"608535428","IAK Klinikum (Haar)",48.116445,11.741971,NA,2,0,"DE","Muenchen","nextbike","2026-06-25 14:31:38"
"608535429","Bahnhof (Gronsdorf)",48.119347,11.699794,NA,5,0,"DE","Muenchen","nextbike","2026-06-25 14:31:38"
"608535430","Sportpark (Haar)",48.114494,11.728949,NA,5,0,"DE","Muenchen","nextbike","2026-06-25 14:31:38"
"608535431","Klinikum Mitte (Haar)",48.116487,11.746498,NA,0,0,"DE","Muenchen","nextbike","2026-06-25 14:31:38"
"608535438","S-Bahnhof Hohenbrunn (Hohenbrunn)",48.047218,11.698346,NA,5,0,"DE","Muenchen","nextbike","2026-06-25 14:31:38"
"608535439","Steinstraße (Hohenbrunn)",48.062083,11.679794,NA,2,0,"DE","Muenchen","nextbike","2026-06-25 14:31:38"
"608535432","S-Bahnhof Nord",48.019222,11.718707,NA,6,0,"DE","Muenchen","nextbike","2026-06-25 14:31:38"
"608535433","Bahnhof (Höhenkirchen-Siegertsbrunn)",48.017067,11.719139,NA,5,0,"DE","Muenchen","nextbike","2026-06-25 14:31:38"
"608535434","Rathaus",48.016069,11.712816,NA,5,0,"DE","Muenchen","nextbike","2026-06-25 14:31:38"
"608535435","Sportplatz Siegertsbrunn ETC",48.01789,11.734888,NA,3,0,"DE","Muenchen","nextbike","2026-06-25 14:31:38"
"608535436","Ortsmitte Siegertsbrunn",48.02425,11.72857,NA,6,0,"DE","Muenchen","nextbike","2026-06-25 14:31:38"
"608535437","Sportplatz Höhenkirchen",48.025028,11.701432,NA,4,0,"DE","Muenchen","nextbike","2026-06-25 14:31:38"
"608535448","Ammerthalstraße (Heimstetten)",48.150935,11.74959,NA,8,0,"DE","Muenchen","nextbike","2026-06-25 14:31:38"
"608535449","Bahnhof Süd (Heimstetten)",48.158369,11.758887,NA,3,0,"DE","Muenchen","nextbike","2026-06-25 14:31:38"
"608535450","Pfarrer-Caspar-Mayr-Platz (Kirchheim)",48.176741,11.755441,NA,4,0,"DE","Muenchen","nextbike","2026-06-25 14:31:38"
"608535451","Räterzentrum (Heimstetten)",48.16348,11.756829,NA,6,0,"DE","Muenchen","nextbike","2026-06-25 14:31:38"
"608535483","Fasanenpark Ost (Neubiberg)",48.079753,11.610314,NA,6,0,"DE","Muenchen","nextbike","2026-06-25 14:31:38"
"608535484","Bahnhofsplatz (Neubiberg)",48.076462,11.660084,NA,4,0,"DE","Muenchen","nextbike","2026-06-25 14:31:38"
"608535485","Campeon (Neubiberg)",48.078716,11.615636,NA,4,0,"DE","Muenchen","nextbike","2026-06-25 14:31:38"
"608535486","Bamerstraße (Neubiberg)",48.079446,11.645409,NA,2,0,"DE","Muenchen","nextbike","2026-06-25 14:31:38"
"608535487","Universitätsstraße (Neubiberg)",48.081829,11.63288,NA,2,0,"DE","Muenchen","nextbike","2026-06-25 14:31:38"
"608535488","Werner-Heisenberg-Weg (Neubiberg)",48.078347,11.651776,NA,6,0,"DE","Muenchen","nextbike","2026-06-25 14:31:38"
"608535489","Hohenbrunner Str. / Prof. - Göttsberger - Str.",48.073284,11.670583,NA,3,0,"DE","Muenchen","nextbike","2026-06-25 14:31:38"
"608535490","Wotanstraße (Neubiberg",48.074283,11.678966,NA,5,0,"DE","Muenchen","nextbike","2026-06-25 14:31:38"
"608535452","Altes Rathaus (Neuried)",48.093395,11.465476,NA,2,0,"DE","Muenchen","nextbike","2026-06-25 14:31:38"
"608535453","Zugspitzstraße (Neuried)",48.087947,11.469806,NA,2,0,"DE","Muenchen","nextbike","2026-06-25 14:31:38"
"608535454","Kraillinger Weg (Neuried)",48.092398,11.456418,NA,4,0,"DE","Muenchen","nextbike","2026-06-25 14:31:38"
"608535455","Am Haderner Winkel (Neuried)",48.094649,11.464114,NA,5,0,"DE","Muenchen","nextbike","2026-06-25 14:31:38"
"608535456","Am Sportpark (Neuried)",48.087564,11.461622,NA,2,0,"DE","Muenchen","nextbike","2026-06-25 14:31:38"
"608535457","Forstenrieder Straße (Neuried)",48.091461,11.469223,NA,1,0,"DE","Muenchen","nextbike","2026-06-25 14:31:38"
"608535458","Deisenhofen Bahnhof (Oberhaching)",48.019833,11.583125,NA,11,0,"DE","Muenchen","nextbike","2026-06-25 14:31:38"
"608535459","Furth Bahnhof (Oberhaching)",48.034959,11.592397,NA,11,0,"DE","Muenchen","nextbike","2026-06-25 14:31:38"
"608535460","Schmidweg (Oberhaching)",48.031311,11.583427,NA,12,0,"DE","Muenchen","nextbike","2026-06-25 14:31:38"
"608535465","Bahnhof Ost (Planegg)",48.10559,11.414315,NA,3,0,"DE","Muenchen","nextbike","2026-06-25 14:31:38"
"608535466","Behringstraße (Planegg)",48.110628,11.431463,NA,3,0,"DE","Muenchen","nextbike","2026-06-25 14:31:38"
"608535467","Otto-Pippel-Straße (Planegg)",48.106504,11.427588,NA,4,0,"DE","Muenchen","nextbike","2026-06-25 14:31:38"
"608535468","Kettelerstraße (Planegg)",48.103033,11.429318,NA,2,0,"DE","Muenchen","nextbike","2026-06-25 14:31:38"
"608535469","Lochhamer Straße (Martinsried Nord)",48.111146,11.451776,NA,5,0,"DE","Muenchen","nextbike","2026-06-25 14:31:38"
"608535470","Max-Planck-Institute (Martinsried)",48.105904,11.459104,NA,0,0,"DE","Muenchen","nextbike","2026-06-25 14:31:38"
"608535471","LMU (Martinsried)",48.110407,11.460697,NA,3,0,"DE","Muenchen","nextbike","2026-06-25 14:31:38"
"608535473","Kopernikusweg (Martinsried)",48.104359,11.44667,NA,3,0,"DE","Muenchen","nextbike","2026-06-25 14:31:38"
"608535474","Röntgenstraße (Martinsried)",48.109298,11.449702,NA,5,0,"DE","Muenchen","nextbike","2026-06-25 14:31:38"
"608535475","IZB (Martinsried)",48.107887,11.459063,NA,2,0,"DE","Muenchen","nextbike","2026-06-25 14:31:38"
"608535476","Pullach Bahnhof (Pullach im Isartal)",48.05884,11.522067,NA,7,0,"DE","Muenchen","nextbike","2026-06-25 14:31:38"
"608535477","Großhesselohe Bahnhof (Pullach im Isartal)",48.070574,11.531098,NA,7,0,"DE","Muenchen","nextbike","2026-06-25 14:31:38"
"608535478","Waldwirtschaft (Pullach im Isartal)",48.067451,11.539233,NA,8,0,"DE","Muenchen","nextbike","2026-06-25 14:31:38"
"608535479","Rathaus (Pullach im Isartal)",48.054615,11.519177,NA,5,0,"DE","Muenchen","nextbike","2026-06-25 14:31:38"
"608535480","Jakobusplatz",48.053556,11.512561,NA,3,0,"DE","Muenchen","nextbike","2026-06-25 14:31:38"
"608535481","Bahnhof Höllriegelskreuth",48.042723,11.509806,NA,6,0,"DE","Muenchen","nextbike","2026-06-25 14:31:38"
"608535482","Großhesseloher Brücke/ Adolf-Wenz-Siedlung",48.074718,11.539836,NA,4,0,"DE","Muenchen","nextbike","2026-06-25 14:31:38"
"608535507","Fasanenpark West (Unterhaching)",48.079566,11.607543,NA,4,0,"DE","Muenchen","nextbike","2026-06-25 14:31:38"
"608535508","Am Sportpark (Unterhaching)",48.072361,11.620452,NA,4,0,"DE","Muenchen","nextbike","2026-06-25 14:31:38"
"608535509","Landschaftspark (Unterhaching)",48.068851,11.619201,NA,4,0,"DE","Muenchen","nextbike","2026-06-25 14:31:38"
"608535510","Sankt-Alto-Straße (Unterhaching)",48.071386,11.606387,NA,3,0,"DE","Muenchen","nextbike","2026-06-25 14:31:38"
"608535511","Bahnhof West (Unterhaching)",48.064884,11.612099,NA,5,0,"DE","Muenchen","nextbike","2026-06-25 14:31:38"
"608535512","Gewerbegebiet (Unterhaching)",48.056144,11.605162,NA,3,0,"DE","Muenchen","nextbike","2026-06-25 14:31:38"
"608535513","KUBIZ (Unterhaching)",48.062174,11.614574,NA,4,0,"DE","Muenchen","nextbike","2026-06-25 14:31:38"
"608535514","Rathausplatz (Unterhaching)",48.066131,11.609576,NA,4,0,"DE","Muenchen","nextbike","2026-06-25 14:31:38"
"608535515","Freibad (Unterhaching)",48.062385,11.62118,NA,5,0,"DE","Muenchen","nextbike","2026-06-25 14:31:38"
"608535347","Bahnhof Seite Münchner Str.",47.884632,11.696689,NA,9,0,"DE","Muenchen","nextbike","2026-06-25 14:31:38"
"608535348","Bahnhof Seite Erlkamer Str.",47.884702,11.697947,NA,8,0,"DE","Muenchen","nextbike","2026-06-25 14:31:38"
"608535349","Standort Bosch",47.893039,11.720663,NA,17,0,"DE","Muenchen","nextbike","2026-06-25 14:31:38"
"608535350","Standort Hexal",47.881076,11.712264,NA,13,0,"DE","Muenchen","nextbike","2026-06-25 14:31:38"
"608535351","Rathaus/Marktplatz",47.877171,11.701189,NA,7,0,"DE","Muenchen","nextbike","2026-06-25 14:31:38"
"608535352","Bahnhof, Bahnhofstr./Ludwig-Thoma-Str.",47.910452,11.682256,NA,4,0,"DE","Muenchen","nextbike","2026-06-25 14:31:38"
"608535353","Gewerbegebiet, Hienlohestraße/Lehrer-Holl Str.",47.917588,11.676253,NA,2,0,"DE","Muenchen","nextbike","2026-06-25 14:31:38"
"608535354","Ortsmitte",47.909992,11.675773,NA,4,0,"DE","Muenchen","nextbike","2026-06-25 14:31:38"
"608535538","Asto Park (Gilching)",48.091772,11.283013,NA,11,0,"DE","Muenchen","nextbike","2026-06-25 14:31:38"
"608535539","S-Bahnhof Neugilching (Gilching)",48.098072,11.287961,NA,13,0,"DE","Muenchen","nextbike","2026-06-25 14:31:38"
"608535540","Gewerbepark Gilching Süd (Gilching)",48.092467,11.310529,NA,6,0,"DE","Muenchen","nextbike","2026-06-25 14:31:38"
"608535355","Heimstettener See (Aschheim)",48.158132,11.737274,NA,5,0,"DE","Muenchen","nextbike","2026-06-25 14:31:38"
"608535356","Feldkirchner Straße (Aschheim)",48.170755,11.716695,NA,7,0,"DE","Muenchen","nextbike","2026-06-25 14:31:38"
"608535357","Park & Ride - Anlage (Dornach)",48.144795,11.680652,NA,3,0,"DE","Muenchen","nextbike","2026-06-25 14:31:38"
"608535358","Gewerbegebiet Eichendorffstraße (Aschheim)",48.165339,11.736585,NA,8,0,"DE","Muenchen","nextbike","2026-06-25 14:31:38"
"608535359","Otto-Hahn-Straße (Dornach)",48.147902,11.684935,NA,5,0,"DE","Muenchen","nextbike","2026-06-25 14:31:38"
"608535360","Gewerbegebiet (Brunnthal Nord)",48.040783,11.661507,NA,2,0,"DE","Muenchen","nextbike","2026-06-25 14:31:38"
"608535361","Bogenstraße (Waldbrunn)",48.041655,11.676953,NA,2,0,"DE","Muenchen","nextbike","2026-06-25 14:31:38"
"608535362","Amselstraße (Gudrunsiedlung)",48.035016,11.667445,NA,2,0,"DE","Muenchen","nextbike","2026-06-25 14:31:38"
"608535363","Waldstraße (Neukirchstockach)",48.034044,11.67733,NA,3,0,"DE","Muenchen","nextbike","2026-06-25 14:31:38"
"608535364","Münchner Straße (Brunnthal)",48.007148,11.6856,NA,3,0,"DE","Muenchen","nextbike","2026-06-25 14:31:38"
"608535365","Bergstraße (Brunnthal)",48.004922,11.680669,NA,1,0,"DE","Muenchen","nextbike","2026-06-25 14:31:38"
"608535366","Tölzer Straße (Otterloh)",47.995795,11.659562,NA,3,0,"DE","Muenchen","nextbike","2026-06-25 14:31:38"
"608535367","Kirchplatz (Hofolding)",47.984057,11.700169,NA,3,0,"DE","Muenchen","nextbike","2026-06-25 14:31:38"
"608535368","Ottobrunner Straße (Faistenhaar)",47.984287,11.715848,NA,2,0,"DE","Muenchen","nextbike","2026-06-25 14:31:38"
"608535369","Waldsiedlung (Faistenhaar)",47.99294,11.710879,NA,3,0,"DE","Muenchen","nextbike","2026-06-25 14:31:38"
"608535370","Eugen-Sänger-Ring",48.041495,11.664519,NA,2,0,"DE","Muenchen","nextbike","2026-06-25 14:31:38"
"608535371","Bahnhof (Feldkirchen)",48.151266,11.731695,NA,5,0,"DE","Muenchen","nextbike","2026-06-25 14:31:38"
"608535372","Dornacher Straße/Mozartstraße (Feldkirchen)",48.151217,11.723097,NA,5,0,"DE","Muenchen","nextbike","2026-06-25 14:31:38"
"608535373","Gewerbegebiet Süd Otto-Lilienthal-Ring (Feldkirchen)",48.140805,11.739926,NA,4,0,"DE","Muenchen","nextbike","2026-06-25 14:31:38"
"608535375","Gewerbegebiet Ost Philipp-Hauck-Straße (Feldkirchen)",48.149798,11.743773,NA,3,0,"DE","Muenchen","nextbike","2026-06-25 14:31:38"
"608535376","Münchner Straße (Feldkirchen)",48.146452,11.728178,NA,6,0,"DE","Muenchen","nextbike","2026-06-25 14:31:38"
"606857330","Studentenstadt U",48.183102,11.608553,NA,1,0,"DE","Muenchen","nextbike","2026-06-25 14:31:38"
"608534898","Kreuzstraße",48.13493,11.567326,NA,5,0,"DE","Muenchen","nextbike","2026-06-25 14:31:38"
"608534899","Oberanger / Klosterhofstraße",48.134225,11.570455,NA,4,0,"DE","Muenchen","nextbike","2026-06-25 14:31:38"
"608534900","Corneliusstraße",48.133705,11.573102,NA,0,0,"DE","Muenchen","nextbike","2026-06-25 14:31:38"
"608534901","Westenriederstraße (Ecke Radlsteg)",48.13503,11.579129,NA,0,0,"DE","Muenchen","nextbike","2026-06-25 14:31:38"
"608534902","Rindermarkt",48.136075,11.574184,NA,11,0,"DE","Muenchen","nextbike","2026-06-25 14:31:38"
"608534903","Pacellistraße (nahe Promenadeplatz)",48.14047,11.571224,NA,5,0,"DE","Muenchen","nextbike","2026-06-25 14:31:38"
"608534904","Platz der Opfer des Nationalsozialismus",48.142614,11.573662,NA,6,0,"DE","Muenchen","nextbike","2026-06-25 14:31:38"
"608534905","Knöbelstraße",48.136081,11.584199,NA,0,0,"DE","Muenchen","nextbike","2026-06-25 14:31:38"
"608534907","Maximilianstrasse (Ecke Residenzstr.)",48.139451,11.577781,NA,1,0,"DE","Muenchen","nextbike","2026-06-25 14:31:38"
"608534908","Thierschplatz",48.13925,11.589338,NA,1,0,"DE","Muenchen","nextbike","2026-06-25 14:31:38"
"608534909","Lerchenfeldstraße",48.143412,11.589044,NA,9,0,"DE","Muenchen","nextbike","2026-06-25 14:31:38"
"608534910","Paradiesstraße",48.146685,11.593243,NA,0,0,"DE","Muenchen","nextbike","2026-06-25 14:31:38"
"608534912","Isartor S - Nord",48.134693,11.583006,NA,0,0,"DE","Muenchen","nextbike","2026-06-25 14:31:38"
"608534913","Herzogspitalstraße HsNr. 4",48.137593,11.568819,NA,2,0,"DE","Muenchen","nextbike","2026-06-25 14:31:38"
"608534914","Seeaustraße",48.144482,11.591632,NA,2,0,"DE","Muenchen","nextbike","2026-06-25 14:31:38"
"608534915","Oettingenstraße",48.150388,11.595284,NA,15,0,"DE","Muenchen","nextbike","2026-06-25 14:31:38"
"608534916","Hermann-Schmid-Straße",48.127621,11.553952,NA,4,0,"DE","Muenchen","nextbike","2026-06-25 14:31:38"
"608534917","Mozartstraße / Goetheplatz",48.129893,11.55805,NA,1,0,"DE","Muenchen","nextbike","2026-06-25 14:31:38"
"608534918","Dreimühlenstraße / Reifenstuelstraße",48.119946,11.558636,NA,6,0,"DE","Muenchen","nextbike","2026-06-25 14:31:38"
"608534919","Baldeplatz",48.123306,11.566879,NA,6,0,"DE","Muenchen","nextbike","2026-06-25 14:31:38"
"608534920","Sendlinger Tor U / Nußbaumstraße",48.133507,11.565029,NA,17,0,"DE","Muenchen","nextbike","2026-06-25 14:31:38"
"608534921","Stephansplatz",48.130936,11.566215,NA,0,0,"DE","Muenchen","nextbike","2026-06-25 14:31:38"
"608534922","Baaderstraße",48.133609,11.581624,NA,2,0,"DE","Muenchen","nextbike","2026-06-25 14:31:38"
"608534923","Fraunhoferstraße",48.128511,11.576132,NA,1,0,"DE","Muenchen","nextbike","2026-06-25 14:31:38"
"608534924","Kaiser-Ludwig-Platz",48.131402,11.555608,NA,3,0,"DE","Muenchen","nextbike","2026-06-25 14:31:38"
"608534925","Am Glockenbach",48.126907,11.56714,NA,1,0,"DE","Muenchen","nextbike","2026-06-25 14:31:38"
"608534926","Hermann-Lingg-Straße",48.138842,11.551604,NA,1,0,"DE","Muenchen","nextbike","2026-06-25 14:31:38"
"608534927","Hauptbahnhof Süd I",48.138495,11.558703,NA,4,0,"DE","Muenchen","nextbike","2026-06-25 14:31:38"
"608534928","Klenzestraße / Westermühlstraße",48.128371,11.570612,NA,6,0,"DE","Muenchen","nextbike","2026-06-25 14:31:38"
"608534930","Theresienwiese",48.135844,11.551369,NA,3,0,"DE","Muenchen","nextbike","2026-06-25 14:31:38"
"608534931","Ickstattstraße",48.129989,11.570392,NA,0,0,"DE","Muenchen","nextbike","2026-06-25 14:31:38"
"608534932","Dreimühlenstraße",48.122721,11.562665,NA,2,0,"DE","Muenchen","nextbike","2026-06-25 14:31:38"
"608534933","Goetheplatz / Waltherstraße",48.129059,11.558744,NA,3,0,"DE","Muenchen","nextbike","2026-06-25 14:31:38"
"608534934","Gärtnerplatz / Reichenbachstraße",48.131419,11.576137,NA,1,0,"DE","Muenchen","nextbike","2026-06-25 14:31:38"
"608534936","Pettenkoferstraße",48.134585,11.558244,NA,4,0,"DE","Muenchen","nextbike","2026-06-25 14:31:38"
"608534937","Theresienwiese / St. Pauls-Platz",48.13662,11.553183,NA,0,0,"DE","Muenchen","nextbike","2026-06-25 14:31:38"
"608534939","Königinstraße / Veterinärstraße",48.14972,11.584551,NA,9,0,"DE","Muenchen","nextbike","2026-06-25 14:31:38"
"608534940","Tengstraße",48.154502,11.568135,NA,9,0,"DE","Muenchen","nextbike","2026-06-25 14:31:38"
"608534941","Gabelsbergerstraße / Augustenstraße",48.149072,11.562642,NA,4,0,"DE","Muenchen","nextbike","2026-06-25 14:31:38"
"608534942","Schleißheimerstraße / Schellingstraße",48.154477,11.560947,NA,4,0,"DE","Muenchen","nextbike","2026-06-25 14:31:38"
"608534943","Hochschule München",48.155077,11.555503,NA,6,0,"DE","Muenchen","nextbike","2026-06-25 14:31:38"
"608534944","Galeriestraße",48.14425,11.578666,NA,6,0,"DE","Muenchen","nextbike","2026-06-25 14:31:38"
"608534945","ZOB - Bernhard-Wicki Straße",48.14272,11.548303,NA,4,0,"DE","Muenchen","nextbike","2026-06-25 14:31:38"
"608534946","St. Benno",48.151933,11.55336,NA,0,0,"DE","Muenchen","nextbike","2026-06-25 14:31:38"
"608534947","Deroystraße",48.143991,11.545243,NA,8,0,"DE","Muenchen","nextbike","2026-06-25 14:31:38"
"608534950","Universität",48.149631,11.58068,NA,8,0,"DE","Muenchen","nextbike","2026-06-25 14:31:38"
"608534952","Hauptbahnhof Nord",48.142073,11.561043,NA,7,0,"DE","Muenchen","nextbike","2026-06-25 14:31:38"
"608534953","Prinz-Ludwig Straße / Barer Straße",48.145813,11.57014,NA,3,0,"DE","Muenchen","nextbike","2026-06-25 14:31:38"
"608534954","Türkenstraße",48.150626,11.576245,NA,3,0,"DE","Muenchen","nextbike","2026-06-25 14:31:38"
"608534955","Amalienstraße / Universität",48.151362,11.579209,NA,6,0,"DE","Muenchen","nextbike","2026-06-25 14:31:38"
"608534956","TU München - Theresienstraße",48.150147,11.567852,NA,0,0,"DE","Muenchen","nextbike","2026-06-25 14:31:38"
"608534957","Königin / Schönfeldstraße",48.145673,11.584113,NA,10,0,"DE","Muenchen","nextbike","2026-06-25 14:31:38"
"608534958","Hohenzollernplatz",48.16107,11.567677,NA,7,0,"DE","Muenchen","nextbike","2026-06-25 14:31:38"
"608534959","Scheidplatz",48.170829,11.573819,8,5,3,"DE","Muenchen","nextbike","2026-06-25 14:31:38"
"608534960","Petuelring U Nord",48.175183,11.565786,NA,4,0,"DE","Muenchen","nextbike","2026-06-25 14:31:38"
"608534961","Bonner Platz",48.167299,11.578208,NA,5,0,"DE","Muenchen","nextbike","2026-06-25 14:31:38"
"608534962","Elisabethplatz",48.156768,11.573554,NA,3,0,"DE","Muenchen","nextbike","2026-06-25 14:31:38"
"608534963","Herzogstraße",48.163588,11.563631,NA,10,0,"DE","Muenchen","nextbike","2026-06-25 14:31:38"
"608534964","Destouchestraße",48.164581,11.574023,NA,5,0,"DE","Muenchen","nextbike","2026-06-25 14:31:38"
"608534965","Kölner Platz / Hörwarthstraße",48.169619,11.578093,NA,1,0,"DE","Muenchen","nextbike","2026-06-25 14:31:38"
"608534967","Rümannstraße",48.175689,11.574496,NA,3,0,"DE","Muenchen","nextbike","2026-06-25 14:31:38"
"608534968","Clemensstraße",48.164327,11.56598,NA,7,0,"DE","Muenchen","nextbike","2026-06-25 14:31:38"
"608534969","Birnauer Straße / Lerchenauer Straße",48.174247,11.56064,NA,13,0,"DE","Muenchen","nextbike","2026-06-25 14:31:38"
"608534970","Georg-Birk-Straße",48.163277,11.557027,NA,4,0,"DE","Muenchen","nextbike","2026-06-25 14:31:38"
"608534971","Kathi-Kobus Straße",48.159055,11.556286,NA,5,0,"DE","Muenchen","nextbike","2026-06-25 14:31:38"
"608534973","Georgenstraße",48.155286,11.574996,NA,6,0,"DE","Muenchen","nextbike","2026-06-25 14:31:38"
"608534974","Pündterplatz",48.162751,11.577344,NA,4,0,"DE","Muenchen","nextbike","2026-06-25 14:31:38"
"608534975","Orleansplatz",48.128103,11.602686,NA,1,0,"DE","Muenchen","nextbike","2026-06-25 14:31:38"
"608534976","Mariahilfstraße/Mariahilfplatz",48.125917,11.58257,NA,0,0,"DE","Muenchen","nextbike","2026-06-25 14:31:38"
"608534977","Hochstrasse / Pöppelstraße",48.124261,11.585795,NA,1,0,"DE","Muenchen","nextbike","2026-06-25 14:31:38"
"608534978","Bothestraße",48.136463,11.613007,NA,1,0,"DE","Muenchen","nextbike","2026-06-25 14:31:38"
"608534979","Lucile-Grahn-Straße",48.135794,11.607648,NA,1,0,"DE","Muenchen","nextbike","2026-06-25 14:31:38"
"608534980","Grillparzerstraße",48.136692,11.609877,NA,0,0,"DE","Muenchen","nextbike","2026-06-25 14:31:38"
"608534981","Rosenheimer Platz",48.129187,11.594263,NA,0,0,"DE","Muenchen","nextbike","2026-06-25 14:31:38"
"608534982","Weißenburger Platz",48.128895,11.596567,NA,3,0,"DE","Muenchen","nextbike","2026-06-25 14:31:38"
"608534983","Ostbahnhof/Belfortstraße",48.129069,11.603514,NA,0,0,"DE","Muenchen","nextbike","2026-06-25 14:31:38"
"608534984","Welfenstraße",48.122349,11.588445,NA,0,0,"DE","Muenchen","nextbike","2026-06-25 14:31:38"
"608534985","Kolumbusplatz",48.120906,11.576194,NA,0,0,"DE","Muenchen","nextbike","2026-06-25 14:31:38"
"608534986","Max-Weber-Platz Ost",48.135588,11.600923,NA,3,0,"DE","Muenchen","nextbike","2026-06-25 14:31:38"
"608534988","Rosenheimer Straße",48.127906,11.594455,NA,1,0,"DE","Muenchen","nextbike","2026-06-25 14:31:38"
"608534990","Schlottauerstraße",48.123219,11.575405,NA,7,0,"DE","Muenchen","nextbike","2026-06-25 14:31:38"
"608534991","Preysingstraße",48.132268,11.591071,NA,1,0,"DE","Muenchen","nextbike","2026-06-25 14:31:38"
"608534992","Mariahilfplatz Süd",48.12486,11.582164,NA,2,0,"DE","Muenchen","nextbike","2026-06-25 14:31:38"
"608534993","Schleibingerstrasse",48.128407,11.591349,NA,1,0,"DE","Muenchen","nextbike","2026-06-25 14:31:38"
"608534994","Regerplatz",48.124676,11.587948,NA,0,0,"DE","Muenchen","nextbike","2026-06-25 14:31:38"
"608534995","Wiener Platz",48.134825,11.595959,NA,1,0,"DE","Muenchen","nextbike","2026-06-25 14:31:38"
"608534996","Hochstraße / Rosenheimer Straße",48.130996,11.589698,NA,0,0,"DE","Muenchen","nextbike","2026-06-25 14:31:38"
"608534998","Kirchenstrasse / Seeriederstraße",48.133665,11.602209,NA,2,0,"DE","Muenchen","nextbike","2026-06-25 14:31:38"
"608534999","Implerstraße",48.121298,11.548541,NA,3,0,"DE","Muenchen","nextbike","2026-06-25 14:31:38"
"608535000","Brudermühlstraße",48.111142,11.548427,NA,1,0,"DE","Muenchen","nextbike","2026-06-25 14:31:38"
"608535001","Spitzwegstraße",48.123018,11.541546,NA,1,0,"DE","Muenchen","nextbike","2026-06-25 14:31:38"
"608535002","Gotzinger Platz",48.118209,11.551294,NA,0,0,"DE","Muenchen","nextbike","2026-06-25 14:31:38"
"608535003","Lagerhausstraße / Thalkirchner Straße",48.120182,11.555557,NA,4,0,"DE","Muenchen","nextbike","2026-06-25 14:31:38"
"608535004","Engelhardstraße",48.112929,11.538838,NA,1,0,"DE","Muenchen","nextbike","2026-06-25 14:31:38"
"608535005","Herzog-Ernst-Platz",48.125191,11.54131,NA,6,0,"DE","Muenchen","nextbike","2026-06-25 14:31:38"
"608535006","Kidlerplatz",48.116949,11.541678,NA,4,0,"DE","Muenchen","nextbike","2026-06-25 14:31:38"
"608535007","Am Harras süd",48.116588,11.539069,NA,1,0,"DE","Muenchen","nextbike","2026-06-25 14:31:38"
"608535008","Mittersendling S Ost",48.108405,11.536971,NA,0,0,"DE","Muenchen","nextbike","2026-06-25 14:31:38"
"608535009","Aberlestraße",48.122236,11.545044,NA,3,0,"DE","Muenchen","nextbike","2026-06-25 14:31:38"
"608535010","Schäftlarnstraße / Gasteig HP8",48.112279,11.552515,NA,1,0,"DE","Muenchen","nextbike","2026-06-25 14:31:38"
"608535011","Margaretenplatz",48.120001,11.540475,NA,2,0,"DE","Muenchen","nextbike","2026-06-25 14:31:38"
"608535012","Resi-Huber Platz",48.112663,11.549056,NA,2,0,"DE","Muenchen","nextbike","2026-06-25 14:31:38"
"608535013","Nestroystraße",48.121426,11.534685,NA,17,0,"DE","Muenchen","nextbike","2026-06-25 14:31:38"
"608535014","Jean-Paul-Richter-Straße",48.1118,11.525932,NA,1,0,"DE","Muenchen","nextbike","2026-06-25 14:31:38"
"608535016","Schwanthalerhöhe U Nord / Heimeranstraße",48.133773,11.544008,NA,0,0,"DE","Muenchen","nextbike","2026-06-25 14:31:38"
"608535018","Trappentreustraße",48.133877,11.533746,NA,3,0,"DE","Muenchen","nextbike","2026-06-25 14:31:38"
"608535019","Ganghoferstraße",48.137974,11.540766,NA,0,0,"DE","Muenchen","nextbike","2026-06-25 14:31:38"
"608535020","Georg-Freundorfer-Platz / Sandtnerstraße",48.133177,11.538327,NA,1,0,"DE","Muenchen","nextbike","2026-06-25 14:31:38"
"608535021","Alter Messeplatz",48.134634,11.545698,NA,0,0,"DE","Muenchen","nextbike","2026-06-25 14:31:38"
"608535023","Schießstättstraße",48.136952,11.545517,NA,0,0,"DE","Muenchen","nextbike","2026-06-25 14:31:38"
"608535024","Hans-Fischer-Straße",48.127766,11.544436,NA,6,0,"DE","Muenchen","nextbike","2026-06-25 14:31:38"
"608535025","Hirschbergstraße",48.148745,11.533839,NA,9,0,"DE","Muenchen","nextbike","2026-06-25 14:31:38"
"608535026","Schluderstraße",48.150123,11.529,NA,6,0,"DE","Muenchen","nextbike","2026-06-25 14:31:38"
"608535027","Steubenplatz Nord",48.150988,11.520659,NA,8,0,"DE","Muenchen","nextbike","2026-06-25 14:31:38"
"608535028","Nibelungenstraße",48.153094,11.52792,NA,6,0,"DE","Muenchen","nextbike","2026-06-25 14:31:38"
"608535029","Spiridon-Louis-Ring",48.167604,11.554154,NA,5,0,"DE","Muenchen","nextbike","2026-06-25 14:31:38"
"608535030","Moosach Bahnhof",48.18024,11.507373,NA,1,0,"DE","Muenchen","nextbike","2026-06-25 14:31:38"
"608535031","Sapporobogen",48.168886,11.536836,NA,6,0,"DE","Muenchen","nextbike","2026-06-25 14:31:38"
"608535032","Westfriedhof",48.169285,11.527391,NA,5,0,"DE","Muenchen","nextbike","2026-06-25 14:31:38"
"608535033","Darmstädter Straße",48.175293,11.525683,NA,4,0,"DE","Muenchen","nextbike","2026-06-25 14:31:38"
"608535034","Treitschkestraße",48.177135,11.521339,NA,8,0,"DE","Muenchen","nextbike","2026-06-25 14:31:38"
"608535036","Pelkovenstraße",48.18115,11.510421,NA,2,0,"DE","Muenchen","nextbike","2026-06-25 14:31:38"
"608535037","Moosacher St. Martins PLatz",48.181676,11.517408,NA,4,0,"DE","Muenchen","nextbike","2026-06-25 14:31:38"
"608535038","Sickingerstraße",48.171936,11.505519,NA,3,0,"DE","Muenchen","nextbike","2026-06-25 14:31:38"
"608535039","Moosstraße",48.176822,11.49671,NA,7,0,"DE","Muenchen","nextbike","2026-06-25 14:31:38"
"608535040","Andenacher Straße",48.185654,11.524704,NA,4,0,"DE","Muenchen","nextbike","2026-06-25 14:31:38"
"608535041","Georg-Brauchle-Ring U",48.17679,11.529516,NA,11,0,"DE","Muenchen","nextbike","2026-06-25 14:31:38"
"608535042","Baubergerstraße",48.176646,11.505376,NA,3,0,"DE","Muenchen","nextbike","2026-06-25 14:31:38"
"608535043","Stadtwerke München",48.171239,11.530954,NA,2,0,"DE","Muenchen","nextbike","2026-06-25 14:31:38"
"608535044","Olympia-Pressestadt",48.180002,11.536811,NA,3,0,"DE","Muenchen","nextbike","2026-06-25 14:31:38"
"608535045","Hugo-Troendle-Straße",48.178919,11.51495,NA,6,0,"DE","Muenchen","nextbike","2026-06-25 14:31:38"
"608535046","Preußenstraße",48.186177,11.557269,NA,7,0,"DE","Muenchen","nextbike","2026-06-25 14:31:38"
"608535047","Milbertshofen / Keferloherstraße",48.181798,11.572188,NA,5,0,"DE","Muenchen","nextbike","2026-06-25 14:31:38"
"608535048","Frankfurter Ring U",48.185778,11.573208,NA,8,0,"DE","Muenchen","nextbike","2026-06-25 14:31:38"
"608535049","Neuherbergstraße",48.209082,11.56504,NA,9,0,"DE","Muenchen","nextbike","2026-06-25 14:31:38"
"608535050","Griegstraße",48.181684,11.584462,NA,6,0,"DE","Muenchen","nextbike","2026-06-25 14:31:38"
"608535051","Schmalkaldener Straße",48.186906,11.584119,NA,13,0,"DE","Muenchen","nextbike","2026-06-25 14:31:38"
"608535052","Olympiazentrum",48.178399,11.556526,NA,18,0,"DE","Muenchen","nextbike","2026-06-25 14:31:38"
"608535053","Marienbaderstraße",48.193547,11.58324,NA,5,0,"DE","Muenchen","nextbike","2026-06-25 14:31:38"
"608535054","Harthof",48.204771,11.570384,NA,4,0,"DE","Muenchen","nextbike","2026-06-25 14:31:38"
"608535055","Ingolstädterstraße",48.196101,11.584007,NA,1,0,"DE","Muenchen","nextbike","2026-06-25 14:31:38"
"608535057","Curt-Mezger-Platz",48.182013,11.566918,NA,10,0,"DE","Muenchen","nextbike","2026-06-25 14:31:38"
"608535058","Rose-Pichler-Weg",48.210749,11.586228,NA,3,0,"DE","Muenchen","nextbike","2026-06-25 14:31:38"
"608535059","Rockefellerstraße süd",48.206641,11.57959,NA,6,0,"DE","Muenchen","nextbike","2026-06-25 14:31:38"
"608535060","Paracelsusstraße",48.201192,11.58952,NA,5,0,"DE","Muenchen","nextbike","2026-06-25 14:31:38"
"608535061","Rockefellerstraße nord",48.209777,11.575216,NA,5,0,"DE","Muenchen","nextbike","2026-06-25 14:31:38"
"608535062","Olympiazentrum ZHS",48.180573,11.547239,NA,10,0,"DE","Muenchen","nextbike","2026-06-25 14:31:38"
"608535063","Troppauerstraße",48.195285,11.572336,NA,2,0,"DE","Muenchen","nextbike","2026-06-25 14:31:38"
"608535064","Abtstraße",48.18439,11.578156,NA,8,0,"DE","Muenchen","nextbike","2026-06-25 14:31:38"
"608535065","Rathenaustraße",48.201209,11.577427,NA,3,0,"DE","Muenchen","nextbike","2026-06-25 14:31:38"
"608535066","Bertholdstraße",48.186131,11.566038,NA,6,0,"DE","Muenchen","nextbike","2026-06-25 14:31:38"
"608535067","Karl-Weinmair-Straße",48.179599,11.589013,NA,4,0,"DE","Muenchen","nextbike","2026-06-25 14:31:38"
"608535068","Marianne-Brandt-Straße",48.180743,11.593467,NA,2,0,"DE","Muenchen","nextbike","2026-06-25 14:31:38"
"608535069","Admiralbogen",48.208239,11.613941,NA,5,0,"DE","Muenchen","nextbike","2026-06-25 14:31:38"
"608535070","Ainmillerstraße",48.158355,11.584377,NA,6,0,"DE","Muenchen","nextbike","2026-06-25 14:31:38"
"608535071","Wilhelm-Wagenfeld-Straße",48.182437,11.593753,NA,0,0,"DE","Muenchen","nextbike","2026-06-25 14:31:38"
"608535072","Max-Bill-Straße",48.187053,11.593011,NA,9,0,"DE","Muenchen","nextbike","2026-06-25 14:31:38"
"608535073","Haimhauser Straße",48.162243,11.587411,NA,2,0,"DE","Muenchen","nextbike","2026-06-25 14:31:38"
"608535074","Gertrud-Grunow-Straße",48.183643,11.596546,NA,7,0,"DE","Muenchen","nextbike","2026-06-25 14:31:38"
"608535075","Freimann",48.190721,11.614713,NA,3,0,"DE","Muenchen","nextbike","2026-06-25 14:31:38"
"608535077","Mandl- / Gunezrainerstraße",48.15987,11.591767,NA,4,0,"DE","Muenchen","nextbike","2026-06-25 14:31:38"
"608535078","Nordfriedhof U",48.173764,11.597312,NA,9,0,"DE","Muenchen","nextbike","2026-06-25 14:31:38"
"608535079","Theodor-Dombart-Straße",48.173112,11.594123,NA,9,0,"DE","Muenchen","nextbike","2026-06-25 14:31:38"
"608535080","St.-Nikolaus-Platz",48.192792,11.616112,NA,5,0,"DE","Muenchen","nextbike","2026-06-25 14:31:38"
"608535081","Josef-Wirth-Weg",48.199189,11.626916,NA,6,0,"DE","Muenchen","nextbike","2026-06-25 14:31:38"
"608535082","Carl-Orff-Bogen",48.207564,11.607999,NA,5,0,"DE","Muenchen","nextbike","2026-06-25 14:31:38"
"608535083","Fröttmaning U",48.210092,11.614037,NA,9,0,"DE","Muenchen","nextbike","2026-06-25 14:31:38"
"608535084","Nordfriedhof",48.172375,11.596858,NA,10,0,"DE","Muenchen","nextbike","2026-06-25 14:31:38"
"608535085","Mildred-Scheel-Bogen",48.1757,11.581672,NA,7,0,"DE","Muenchen","nextbike","2026-06-25 14:31:38"
"608535086","Königinstraße / Ohmstraße",48.153451,11.587692,NA,7,0,"DE","Muenchen","nextbike","2026-06-25 14:31:38"
"608535087","Arabellapark",48.153002,11.62132,NA,5,0,"DE","Muenchen","nextbike","2026-06-25 14:31:38"
"608535088","Siebertstraße",48.143687,11.601102,NA,1,0,"DE","Muenchen","nextbike","2026-06-25 14:31:38"
"608535089","Prinzregentenstadion",48.139597,11.604241,NA,0,0,"DE","Muenchen","nextbike","2026-06-25 14:31:38"
"608535090","Bundesfinanzhof",48.148214,11.605206,NA,1,0,"DE","Muenchen","nextbike","2026-06-25 14:31:38"
"608535091","Herkomerplatz",48.150711,11.609229,NA,0,0,"DE","Muenchen","nextbike","2026-06-25 14:31:38"
"608535092","Fritz-Meyer-Weg",48.172258,11.636217,NA,4,0,"DE","Muenchen","nextbike","2026-06-25 14:31:38"
"608535093","Galileiplatz",48.144415,11.607187,NA,1,0,"DE","Muenchen","nextbike","2026-06-25 14:31:38"
"608535094","Cosimastraße",48.163027,11.62937,NA,2,0,"DE","Muenchen","nextbike","2026-06-25 14:31:38"
"608535095","Elektrastraße",48.151304,11.626196,NA,2,0,"DE","Muenchen","nextbike","2026-06-25 14:31:38"
"608535096","Hofererweg",48.148617,11.628294,NA,5,0,"DE","Muenchen","nextbike","2026-06-25 14:31:38"
"608535097","Gleimstraße",48.141575,11.6268,NA,1,0,"DE","Muenchen","nextbike","2026-06-25 14:31:38"
"608535098","Daglfinger Straße",48.146417,11.640839,NA,10,0,"DE","Muenchen","nextbike","2026-06-25 14:31:38"
"608535099","Königsbergerstraße",48.151808,11.640735,NA,7,0,"DE","Muenchen","nextbike","2026-06-25 14:31:38"
"608535100","Meistersingerstraße",48.157879,11.640522,NA,4,0,"DE","Muenchen","nextbike","2026-06-25 14:31:38"
"608535101","Wesendonkstraße",48.165255,11.628959,NA,3,0,"DE","Muenchen","nextbike","2026-06-25 14:31:38"
"608535102","Fürkhofstraße",48.168059,11.634617,NA,11,0,"DE","Muenchen","nextbike","2026-06-25 14:31:38"
"608535103","Lohengrinstraße",48.162805,11.62518,NA,9,0,"DE","Muenchen","nextbike","2026-06-25 14:31:38"
"608535104","Wilhelm-Dieß-Weg",48.155228,11.636935,NA,5,0,"DE","Muenchen","nextbike","2026-06-25 14:31:38"
"608535105","Bernheimerstraße",48.173565,11.629237,NA,5,0,"DE","Muenchen","nextbike","2026-06-25 14:31:38"
"608535106","Mauerkirchner Straße",48.166898,11.618598,NA,1,0,"DE","Muenchen","nextbike","2026-06-25 14:31:38"
"608535107","Gellertstrasse",48.162641,11.614954,NA,4,0,"DE","Muenchen","nextbike","2026-06-25 14:31:38"
"608535108","Rohlfsstraße",48.140971,11.636567,NA,2,0,"DE","Muenchen","nextbike","2026-06-25 14:31:38"
"608535109","Lüderitzstraße",48.140295,11.6434,NA,6,0,"DE","Muenchen","nextbike","2026-06-25 14:31:38"
"608535110","Burgauerstraße",48.149652,11.657519,NA,2,0,"DE","Muenchen","nextbike","2026-06-25 14:31:38"
"608535111","Kardinal-Wendel-Straße",48.166293,11.657063,NA,1,0,"DE","Muenchen","nextbike","2026-06-25 14:31:38"
"608535112","Böhmerwaldplatz",48.142581,11.615048,NA,1,0,"DE","Muenchen","nextbike","2026-06-25 14:31:38"
"608535113","Richard-Strauss-Straße",48.148596,11.616378,NA,1,0,"DE","Muenchen","nextbike","2026-06-25 14:31:38"
"608535114","Mahirstraße",48.155977,11.614119,NA,1,0,"DE","Muenchen","nextbike","2026-06-25 14:31:38"
"608535116","Cosimabad",48.154246,11.629261,NA,7,0,"DE","Muenchen","nextbike","2026-06-25 14:31:38"
"608535117","Gemingstraße",48.143237,11.661442,NA,1,0,"DE","Muenchen","nextbike","2026-06-25 14:31:38"
"608535118","Schlösselgarten",48.15901,11.629502,NA,2,0,"DE","Muenchen","nextbike","2026-06-25 14:31:38"
"608535119","Höchlstraße",48.145695,11.601865,NA,3,0,"DE","Muenchen","nextbike","2026-06-25 14:31:38"
"608535120","Knappertsbuschstraße",48.163298,11.640504,NA,1,0,"DE","Muenchen","nextbike","2026-06-25 14:31:38"
"608535121","Prinzregentenplatz Nord",48.139733,11.607422,NA,2,0,"DE","Muenchen","nextbike","2026-06-25 14:31:38"
"608535122","Michaelibad",48.119206,11.630504,NA,0,0,"DE","Muenchen","nextbike","2026-06-25 14:31:38"
"608535123","Hermann-Weinhauser-Straße",48.133385,11.628823,NA,8,0,"DE","Muenchen","nextbike","2026-06-25 14:31:38"
"608535124","August-Everding-Straße",48.125389,11.61037,NA,0,0,"DE","Muenchen","nextbike","2026-06-25 14:31:38"
"608535125","Ostbahnhof/Friedenstraße",48.126895,11.6079,NA,2,0,"DE","Muenchen","nextbike","2026-06-25 14:31:38"
"608535126","Kreillerstraße",48.1258,11.647802,NA,3,0,"DE","Muenchen","nextbike","2026-06-25 14:31:38"
"608535127","Fehwiesenstraße",48.129299,11.624311,NA,8,0,"DE","Muenchen","nextbike","2026-06-25 14:31:38"
"608535128","Hachinger-Bach Straße",48.119774,11.639069,NA,4,0,"DE","Muenchen","nextbike","2026-06-25 14:31:38"
"608535129","St-Veit Straße",48.122728,11.642506,NA,1,0,"DE","Muenchen","nextbike","2026-06-25 14:31:38"
"608535130","Hohenbrunnerstraße",48.119258,11.649278,NA,6,0,"DE","Muenchen","nextbike","2026-06-25 14:31:38"
"608535131","Ursbergerstraße",48.130831,11.644692,NA,2,0,"DE","Muenchen","nextbike","2026-06-25 14:31:38"
"608535132","Hansjakobstraße",48.127146,11.653469,NA,2,0,"DE","Muenchen","nextbike","2026-06-25 14:31:38"
"608535133","Friedenstraße",48.124054,11.602249,NA,0,0,"DE","Muenchen","nextbike","2026-06-25 14:31:38"
"608535134","Innsbrucker Ring U-Bahn Ost",48.120444,11.622317,NA,3,0,"DE","Muenchen","nextbike","2026-06-25 14:31:38"
"608535135","Mühldorfstraße",48.127096,11.613289,NA,1,0,"DE","Muenchen","nextbike","2026-06-25 14:31:38"
"608535136","Josephsburg U-Bahn",48.126289,11.632472,NA,1,0,"DE","Muenchen","nextbike","2026-06-25 14:31:38"
"608535137","Grafinger Straße",48.124578,11.619448,NA,2,0,"DE","Muenchen","nextbike","2026-06-25 14:31:38"
"608535138","Isareckstraße",48.128027,11.621821,NA,3,0,"DE","Muenchen","nextbike","2026-06-25 14:31:38"
"608535139","Mutschellestraße",48.126359,11.638202,NA,1,0,"DE","Muenchen","nextbike","2026-06-25 14:31:38"
"608535140","Gögginger Straße",48.122369,11.628135,NA,1,0,"DE","Muenchen","nextbike","2026-06-25 14:31:38"
"608535141","Virgil- / Hansjakobstraße",48.130119,11.636914,NA,0,0,"DE","Muenchen","nextbike","2026-06-25 14:31:38"
"608535142","Edinburghplatz",48.133198,11.689623,NA,1,0,"DE","Muenchen","nextbike","2026-06-25 14:31:38"
"608535143","Trudering Bahnhof Süd",48.124822,11.664353,NA,2,0,"DE","Muenchen","nextbike","2026-06-25 14:31:38"
"608535144","Gronsdorf Bahnhof",48.11804,11.697968,NA,1,0,"DE","Muenchen","nextbike","2026-06-25 14:31:38"
"608535145","Friedenspromenade",48.112699,11.676805,NA,3,0,"DE","Muenchen","nextbike","2026-06-25 14:31:38"
"608535146","Truderinger Straße",48.121528,11.671484,NA,1,0,"DE","Muenchen","nextbike","2026-06-25 14:31:38"
"608535147","Perlach Bahnhof",48.094224,11.63063,NA,6,0,"DE","Muenchen","nextbike","2026-06-25 14:31:38"
"608535148","Quiddestraße",48.106845,11.646671,NA,3,0,"DE","Muenchen","nextbike","2026-06-25 14:31:38"
"608535149","Plettstraße",48.10683,11.640937,NA,4,0,"DE","Muenchen","nextbike","2026-06-25 14:31:38"
"608535150","Karl-Marx-Zentrum",48.107929,11.656326,NA,7,0,"DE","Muenchen","nextbike","2026-06-25 14:31:38"
"608535151","Giesinger Bahnhof I",48.110402,11.594512,NA,0,0,"DE","Muenchen","nextbike","2026-06-25 14:31:38"
"608535152","Kesselbergstraße",48.112869,11.583699,NA,3,0,"DE","Muenchen","nextbike","2026-06-25 14:31:38"
"608535153","Untersbergstraße",48.112087,11.587162,NA,3,0,"DE","Muenchen","nextbike","2026-06-25 14:31:38"
"608535154","Ella-Lingens-Platz",48.10981,11.580252,NA,1,0,"DE","Muenchen","nextbike","2026-06-25 14:31:38"
"608535155","Schyrenbad",48.120464,11.570291,NA,4,0,"DE","Muenchen","nextbike","2026-06-25 14:31:38"
"608535156","Hans-Mielich-Platz",48.116473,11.570002,NA,14,0,"DE","Muenchen","nextbike","2026-06-25 14:31:38"
"608535157","Candidplatz",48.112018,11.571463,NA,2,0,"DE","Muenchen","nextbike","2026-06-25 14:31:38"
"608535158","Lebschéestraße",48.107519,11.565151,NA,16,0,"DE","Muenchen","nextbike","2026-06-25 14:31:38"
"608535159","Fromundstraße",48.107716,11.576902,NA,6,0,"DE","Muenchen","nextbike","2026-06-25 14:31:38"
"608535160","Tierpark / Alemannenstraße",48.10064,11.558403,NA,1,0,"DE","Muenchen","nextbike","2026-06-25 14:31:38"
"608535162","Mangfallplatz",48.097194,11.581433,NA,10,0,"DE","Muenchen","nextbike","2026-06-25 14:31:38"
"608535163","Karolingerallee",48.095101,11.557736,NA,6,0,"DE","Muenchen","nextbike","2026-06-25 14:31:38"
"608535164","Hellabrunner Straße",48.110951,11.565297,NA,4,0,"DE","Muenchen","nextbike","2026-06-25 14:31:38"
"608535165","Authariplatz",48.091793,11.563215,NA,4,0,"DE","Muenchen","nextbike","2026-06-25 14:31:38"
"608535166","Südtiroler Straße",48.100778,11.567277,NA,4,0,"DE","Muenchen","nextbike","2026-06-25 14:31:38"
"608535167","Schmorellplatz",48.081953,11.546977,NA,6,0,"DE","Muenchen","nextbike","2026-06-25 14:31:38"
"608535168","Kastanienstraße",48.101765,11.58046,NA,3,0,"DE","Muenchen","nextbike","2026-06-25 14:31:38"
"608535169","Säbener Straße",48.098196,11.571131,NA,2,0,"DE","Muenchen","nextbike","2026-06-25 14:31:38"
"608535170","Bruggspergerstraße",48.086447,11.560821,NA,4,0,"DE","Muenchen","nextbike","2026-06-25 14:31:38"
"608535171","Säbenerplatz",48.089551,11.574538,NA,10,0,"DE","Muenchen","nextbike","2026-06-25 14:31:38"
"608535172","Schellenbergstraße",48.105725,11.574721,NA,6,0,"DE","Muenchen","nextbike","2026-06-25 14:31:38"
"608535173","Klausener Straße",48.10335,11.573001,NA,4,0,"DE","Muenchen","nextbike","2026-06-25 14:31:38"
"608535174","Hochleite - Zugang Marienklausenbrücke",48.092107,11.552297,NA,10,0,"DE","Muenchen","nextbike","2026-06-25 14:31:38"
"608535175","St.-Quirin-Platz U",48.104556,11.581453,NA,5,0,"DE","Muenchen","nextbike","2026-06-25 14:31:38"
"608535176","Wettersteinplatz U / Weningstraße",48.109311,11.57439,NA,1,0,"DE","Muenchen","nextbike","2026-06-25 14:31:38"
"608535178","Kupferhammerstraße",48.118441,11.574923,NA,3,0,"DE","Muenchen","nextbike","2026-06-25 14:31:38"
"608535179","Kemptener Straße",48.078873,11.483972,NA,5,0,"DE","Muenchen","nextbike","2026-06-25 14:31:38"
"608535180","Thalkirchen",48.101304,11.546416,NA,1,0,"DE","Muenchen","nextbike","2026-06-25 14:31:38"
"608535181","Obersendling",48.098617,11.537258,NA,1,0,"DE","Muenchen","nextbike","2026-06-25 14:31:38"
"608535182","Albert Bayerle Platz",48.10014,11.529422,NA,8,0,"DE","Muenchen","nextbike","2026-06-25 14:31:38"
"608535183","Ratzingerplatz",48.099902,11.522297,NA,1,0,"DE","Muenchen","nextbike","2026-06-25 14:31:38"
"608535184","Drygalski Allee Nord",48.098845,11.509038,NA,1,0,"DE","Muenchen","nextbike","2026-06-25 14:31:38"
"608535185","Forstenrieder Allee",48.095356,11.498043,NA,11,0,"DE","Muenchen","nextbike","2026-06-25 14:31:38"
"608535186","Basler Straße U",48.09104,11.49118,NA,3,0,"DE","Muenchen","nextbike","2026-06-25 14:31:38"
"608535187","Fürstenried West",48.088371,11.480756,NA,4,0,"DE","Muenchen","nextbike","2026-06-25 14:31:38"
"608535188","Thurgaustraße",48.092152,11.480793,NA,8,0,"DE","Muenchen","nextbike","2026-06-25 14:31:38"
"608535189","Forstenried",48.08479,11.494606,NA,4,0,"DE","Muenchen","nextbike","2026-06-25 14:31:38"
"608535190","Springerstraße",48.081974,11.50333,NA,7,0,"DE","Muenchen","nextbike","2026-06-25 14:31:38"
"608535193","Grünbauerstraße / Herterichstraße",48.076398,11.517174,NA,11,0,"DE","Muenchen","nextbike","2026-06-25 14:31:38"
"608535194","Sollner Straße",48.077524,11.524738,NA,7,0,"DE","Muenchen","nextbike","2026-06-25 14:31:38"
"608535195","Solln Bahnhof Wendeschleife",48.081394,11.527757,NA,4,0,"DE","Muenchen","nextbike","2026-06-25 14:31:38"
"608535196","Grünbauerstraße/Hofbrunnstraße",48.08332,11.517733,NA,3,0,"DE","Muenchen","nextbike","2026-06-25 14:31:38"
"608535197","Zeismeringer Straße",48.08823,11.519573,NA,9,0,"DE","Muenchen","nextbike","2026-06-25 14:31:38"
"608535198","Maria-Einsiedel-Straße",48.095857,11.543037,NA,11,0,"DE","Muenchen","nextbike","2026-06-25 14:31:38"
"608535199","Melchiorstraße",48.072438,11.519124,NA,8,0,"DE","Muenchen","nextbike","2026-06-25 14:31:38"
"608535200","Siemenswerke",48.09348,11.530567,NA,2,0,"DE","Muenchen","nextbike","2026-06-25 14:31:38"
"608535201","St.-Wendel-Straße",48.090862,11.53489,NA,5,0,"DE","Muenchen","nextbike","2026-06-25 14:31:38"
"608535202","Josephinenstraße",48.082361,11.53662,NA,4,0,"DE","Muenchen","nextbike","2026-06-25 14:31:38"
"608535203","Glötzleweg",48.08604,11.510067,NA,11,0,"DE","Muenchen","nextbike","2026-06-25 14:31:38"
"608535204","Münsinger Straße",48.094357,11.516222,NA,3,0,"DE","Muenchen","nextbike","2026-06-25 14:31:38"
"608535205","Maxhofstraße",48.083382,11.474474,NA,5,0,"DE","Muenchen","nextbike","2026-06-25 14:31:38"
"608535206","Kriegelsteinerstraße",48.090145,11.497124,NA,4,0,"DE","Muenchen","nextbike","2026-06-25 14:31:38"
"608535207","Becker-Gundahl-Straße",48.085813,11.525466,NA,4,0,"DE","Muenchen","nextbike","2026-06-25 14:31:38"
"608535208","Königswieser Straße",48.083168,11.486061,NA,2,0,"DE","Muenchen","nextbike","2026-06-25 14:31:38"
"608535209","Leutstettener Straße",48.093501,11.522254,NA,0,0,"DE","Muenchen","nextbike","2026-06-25 14:31:38"
"608535210","Max-Lebsche-Platz",48.108855,11.476151,NA,0,0,"DE","Muenchen","nextbike","2026-06-25 14:31:38"
"608535211","Am Hedernfeld",48.121859,11.474135,NA,12,0,"DE","Muenchen","nextbike","2026-06-25 14:31:38"
"608535212","Drozzaweg",48.119891,11.477939,NA,4,0,"DE","Muenchen","nextbike","2026-06-25 14:31:38"
"608535213","Wastl-Witt Straße west",48.126834,11.469635,NA,4,0,"DE","Muenchen","nextbike","2026-06-25 14:31:38"
"608535214","Wastl-Witt Straße ost",48.128098,11.474167,NA,1,0,"DE","Muenchen","nextbike","2026-06-25 14:31:38"
"608535215","Veilchenstraße",48.129008,11.483073,NA,11,0,"DE","Muenchen","nextbike","2026-06-25 14:31:38"
"608535216","Ossingerstraße",48.120252,11.501537,NA,4,0,"DE","Muenchen","nextbike","2026-06-25 14:31:38"
"608535217","Menaristraße",48.128501,11.493941,NA,5,0,"DE","Muenchen","nextbike","2026-06-25 14:31:38"
"608535218","Stiftsbogen",48.119285,11.484481,NA,9,0,"DE","Muenchen","nextbike","2026-06-25 14:31:38"
"608535219","Holzapfelkreuth",48.116495,11.501274,NA,2,0,"DE","Muenchen","nextbike","2026-06-25 14:31:38"
"608535220","Kornwegerstraße",48.1128,11.495257,NA,7,0,"DE","Muenchen","nextbike","2026-06-25 14:31:38"
"608535221","Aurikelstraße",48.107831,11.490503,NA,2,0,"DE","Muenchen","nextbike","2026-06-25 14:31:38"
"608535222","Lorettoplatz",48.104225,11.488454,NA,5,0,"DE","Muenchen","nextbike","2026-06-25 14:31:38"
"608535223","Am Waldrand",48.107028,11.482198,NA,0,0,"DE","Muenchen","nextbike","2026-06-25 14:31:38"
"608535224","Altenastraße",48.114291,11.48567,NA,0,0,"DE","Muenchen","nextbike","2026-06-25 14:31:38"
"608535225","Konrad-Dreher-Straße",48.128223,11.489695,NA,8,0,"DE","Muenchen","nextbike","2026-06-25 14:31:38"
"608535226","Gondrellplatz",48.124585,11.490007,NA,11,0,"DE","Muenchen","nextbike","2026-06-25 14:31:38"
"608535227","Haderner Stern",48.118499,11.489439,NA,9,0,"DE","Muenchen","nextbike","2026-06-25 14:31:38"
"608535228","Ludwig-Hunger-Straße",48.118685,11.467851,NA,1,0,"DE","Muenchen","nextbike","2026-06-25 14:31:38"
"608535229","Großhadern",48.115436,11.475624,NA,9,0,"DE","Muenchen","nextbike","2026-06-25 14:31:38"
"608535230","Hans-Grässel Weg",48.113127,11.502006,NA,1,0,"DE","Muenchen","nextbike","2026-06-25 14:31:38"
"608535231","Pasinger Marienplatz",48.146709,11.46005,NA,1,0,"DE","Muenchen","nextbike","2026-06-25 14:31:38"
"608535232","Hermine-von-Parish-Straße",48.150228,11.476252,NA,11,0,"DE","Muenchen","nextbike","2026-06-25 14:31:38"
"608535234","Westkreuz",48.147977,11.44211,NA,2,0,"DE","Muenchen","nextbike","2026-06-25 14:31:38"
"608535235","Aubing",48.155602,11.414183,NA,10,0,"DE","Muenchen","nextbike","2026-06-25 14:31:38"
"608535236","Neuaubing",48.142867,11.423266,NA,6,0,"DE","Muenchen","nextbike","2026-06-25 14:31:38"
"608535237","Freiham",48.139371,11.410948,NA,4,0,"DE","Muenchen","nextbike","2026-06-25 14:31:38"
"608535238","Am Kosttor",48.138335,11.580954,NA,1,0,"DE","Muenchen","nextbike","2026-06-25 14:31:38"
"608535239","Sparkassenstraße, nördl. Tal",48.136871,11.57762,NA,8,0,"DE","Muenchen","nextbike","2026-06-25 14:31:38"
"608535240","Maximilianstraße, östl. Herzog-Rudolf-Str.",48.138504,11.583453,NA,1,0,"DE","Muenchen","nextbike","2026-06-25 14:31:38"
"608535241","Brunnstraße",48.136264,11.56864,NA,0,0,"DE","Muenchen","nextbike","2026-06-25 14:31:38"
"608535242","Laimer Platz",48.135399,11.501023,NA,7,0,"DE","Muenchen","nextbike","2026-06-25 14:31:38"
"608535243","Aindorferstraße / Rushaimerstraße",48.132325,11.494171,NA,1,0,"DE","Muenchen","nextbike","2026-06-25 14:31:38"
"608535244","Agnes-Bernauer-Straße",48.139516,11.511111,NA,6,0,"DE","Muenchen","nextbike","2026-06-25 14:31:38"
"608535245","Aindorferstraße",48.131108,11.501099,NA,2,0,"DE","Muenchen","nextbike","2026-06-25 14:31:38"
"608535246","Friedenheimer Straße",48.134625,11.511949,NA,3,0,"DE","Muenchen","nextbike","2026-06-25 14:31:38"
"608535247","Westendstraße",48.13501,11.521975,NA,5,0,"DE","Muenchen","nextbike","2026-06-25 14:31:38"
"608535248","Landsberger Straße / Elsenheimer Straße",48.141413,11.517044,NA,5,0,"DE","Muenchen","nextbike","2026-06-25 14:31:38"
"608535249","Lautensackstraße",48.138777,11.517862,NA,3,0,"DE","Muenchen","nextbike","2026-06-25 14:31:38"
"608535250","Rechpacherstraße",48.132577,11.486845,NA,4,0,"DE","Muenchen","nextbike","2026-06-25 14:31:38"
"608535251","Agnes Bernauer Platz",48.14029,11.496202,NA,7,0,"DE","Muenchen","nextbike","2026-06-25 14:31:38"
"608535252","Pörtschacher Straße",48.144439,11.490785,NA,9,0,"DE","Muenchen","nextbike","2026-06-25 14:31:38"
"608535254","Sandrartstraße",48.139857,11.50742,NA,3,0,"DE","Muenchen","nextbike","2026-06-25 14:31:38"
"608535255","Laim S / Wotanstraße",48.143726,11.50286,NA,3,0,"DE","Muenchen","nextbike","2026-06-25 14:31:38"
"613312171","Blumenstraße - Planungsreferat",48.13238,11.571394,NA,1,0,"DE","Muenchen","nextbike","2026-06-25 14:31:38"
"613312172","Odeonsplatz (Ostseite)",48.143268,11.57804,NA,0,0,"DE","Muenchen","nextbike","2026-06-25 14:31:38"
"613312173","Christophstraße",48.141061,11.58307,NA,8,0,"DE","Muenchen","nextbike","2026-06-25 14:31:38"
"613312174","Boschbrücke",48.131134,11.582159,NA,2,0,"DE","Muenchen","nextbike","2026-06-25 14:31:38"
"613312175","Deutsches Museum",48.1316,11.58534,NA,9,0,"DE","Muenchen","nextbike","2026-06-25 14:31:38"
"613312176","Marsplatz",48.146354,11.546639,NA,3,0,"DE","Muenchen","nextbike","2026-06-25 14:31:38"
"613312179","Königsplatz U / Karlstraße",48.144154,11.563007,NA,4,0,"DE","Muenchen","nextbike","2026-06-25 14:31:38"
"613312180","Agnesstraße",48.158277,11.562846,NA,5,0,"DE","Muenchen","nextbike","2026-06-25 14:31:38"
"613312181","Stiglmaierplatz",48.1473,11.559695,NA,0,0,"DE","Muenchen","nextbike","2026-06-25 14:31:38"
"613312182","Stachus - Justizpalast",48.139931,11.565032,NA,6,0,"DE","Muenchen","nextbike","2026-06-25 14:31:38"
"613312183","Arnulfstraße - ZOB",48.143397,11.550394,NA,3,0,"DE","Muenchen","nextbike","2026-06-25 14:31:38"
"613312184","Schwere Reiter Straße",48.161334,11.55692,NA,2,0,"DE","Muenchen","nextbike","2026-06-25 14:31:38"
"613312185","Ackermannstraße / Schleißheimerstraße",48.168248,11.564684,NA,9,0,"DE","Muenchen","nextbike","2026-06-25 14:31:38"
"613312186","Bismarckstraße",48.162412,11.581602,NA,3,0,"DE","Muenchen","nextbike","2026-06-25 14:31:38"
"613312187","Auerfeldstraße",48.124138,11.59681,NA,1,0,"DE","Muenchen","nextbike","2026-06-25 14:31:38"
"613312188","Kellerstraße",48.130857,11.594334,NA,2,0,"DE","Muenchen","nextbike","2026-06-25 14:31:38"
"613312189","Wörthstraße",48.131591,11.598489,NA,0,0,"DE","Muenchen","nextbike","2026-06-25 14:31:38"
"613312190","Kirchenstraße",48.132646,11.609138,NA,0,0,"DE","Muenchen","nextbike","2026-06-25 14:31:38"
"613312191","Steinerstraße",48.103894,11.539732,NA,2,0,"DE","Muenchen","nextbike","2026-06-25 14:31:38"
"613312192","Pullacher Platz",48.105394,11.545422,NA,5,0,"DE","Muenchen","nextbike","2026-06-25 14:31:38"
"613312193","Am Flauchersteg",48.107177,11.552422,NA,4,0,"DE","Muenchen","nextbike","2026-06-25 14:31:38"
"613312194","Höglwörther Straße",48.10608,11.522882,NA,1,0,"DE","Muenchen","nextbike","2026-06-25 14:31:38"
"613312195","Mittersendling West",48.108897,11.534912,NA,0,0,"DE","Muenchen","nextbike","2026-06-25 14:31:38"
"613312196","Luise-Kiesselbach-Platz",48.112654,11.519251,NA,4,0,"DE","Muenchen","nextbike","2026-06-25 14:31:38"
"613312197","Waldfriedhofstraße",48.113463,11.515531,NA,1,0,"DE","Muenchen","nextbike","2026-06-25 14:31:38"
"613312198","Waldfriedhof",48.112061,11.503793,NA,0,0,"DE","Muenchen","nextbike","2026-06-25 14:31:38"
"613312199","Einhornallee",48.107665,11.511278,NA,4,0,"DE","Muenchen","nextbike","2026-06-25 14:31:38"
"613312200","Markomannenstraße",48.105386,11.505467,NA,12,0,"DE","Muenchen","nextbike","2026-06-25 14:31:38"
"613312201","Hinterbärenbadstraße",48.120626,11.528467,NA,9,0,"DE","Muenchen","nextbike","2026-06-25 14:31:38"
"613312202","Westendstraße",48.123732,11.508038,NA,8,0,"DE","Muenchen","nextbike","2026-06-25 14:31:38"
"613312203","Illingstraße",48.103491,11.524717,NA,0,0,"DE","Muenchen","nextbike","2026-06-25 14:31:38"
"613312204","Partnachplatz",48.116802,11.526109,NA,0,0,"DE","Muenchen","nextbike","2026-06-25 14:31:38"
"613312205","Westpark",48.117857,11.516793,NA,5,0,"DE","Muenchen","nextbike","2026-06-25 14:31:38"
"613312206","Drachenseestraße",48.117041,11.531579,NA,3,0,"DE","Muenchen","nextbike","2026-06-25 14:31:38"
"613312207","Trappentreustraße / Donnersbergerbrücke",48.13917,11.534863,NA,6,0,"DE","Muenchen","nextbike","2026-06-25 14:31:38"
"613312208","Donnersbergerbrücke",48.14363,11.536145,NA,3,0,"DE","Muenchen","nextbike","2026-06-25 14:31:38"
"613312209","Hedwig-Dransfeld-Allee",48.165227,11.545216,NA,3,0,"DE","Muenchen","nextbike","2026-06-25 14:31:38"
"613312210","Fasaneriestraße",48.15753,11.54324,NA,4,0,"DE","Muenchen","nextbike","2026-06-25 14:31:38"
"613312211","Gerner Brücke",48.158631,11.525995,NA,11,0,"DE","Muenchen","nextbike","2026-06-25 14:31:38"
"613312212","Burghausener Straße",48.147584,11.529286,NA,8,0,"DE","Muenchen","nextbike","2026-06-25 14:31:38"
"613312213","Hirschgarten",48.144816,11.520115,NA,2,0,"DE","Muenchen","nextbike","2026-06-25 14:31:38"
"613312214","Engasserbogen",48.145708,11.51151,NA,3,0,"DE","Muenchen","nextbike","2026-06-25 14:31:38"
"613312215","Nymphenburg Süd",48.146477,11.50229,NA,4,0,"DE","Muenchen","nextbike","2026-06-25 14:31:38"
"613312216","Kemnatenstraße",48.151492,11.5043,NA,2,0,"DE","Muenchen","nextbike","2026-06-25 14:31:38"
"613312217","Romanstraße",48.155154,11.506797,NA,8,0,"DE","Muenchen","nextbike","2026-06-25 14:31:38"
"613312218","Volpinistraße",48.165104,11.512722,NA,6,0,"DE","Muenchen","nextbike","2026-06-25 14:31:38"
"613312219","Dall'Armistraße",48.161671,11.511572,NA,1,0,"DE","Muenchen","nextbike","2026-06-25 14:31:38"
"613312220","Donnersbergerstraße",48.146583,11.535691,NA,1,0,"DE","Muenchen","nextbike","2026-06-25 14:31:38"
"613312221","Rotkreuzplatz",48.153112,11.53196,NA,8,0,"DE","Muenchen","nextbike","2026-06-25 14:31:38"
"613312222","Amalienburgstraße",48.165325,11.493301,NA,12,0,"DE","Muenchen","nextbike","2026-06-25 14:31:38"
"613312223","Botanischer Garten",48.164677,11.502466,NA,10,0,"DE","Muenchen","nextbike","2026-06-25 14:31:38"
"613312224","Dom-Pedro-Straße",48.159708,11.535026,NA,9,0,"DE","Muenchen","nextbike","2026-06-25 14:31:38"
"613312225","Albrechtstraße",48.155192,11.540153,NA,9,0,"DE","Muenchen","nextbike","2026-06-25 14:31:38"
"613312226","Leonrodplatz",48.1597,11.546576,NA,1,0,"DE","Muenchen","nextbike","2026-06-25 14:31:38"
"613312227","Christoph-Rapparini-Bogen",48.145803,11.506384,NA,2,0,"DE","Muenchen","nextbike","2026-06-25 14:31:38"
"613312228","Hanebergstraße",48.162264,11.536793,NA,3,0,"DE","Muenchen","nextbike","2026-06-25 14:31:38"
"613312229","Donauwörther Straße",48.184202,11.496734,NA,9,0,"DE","Muenchen","nextbike","2026-06-25 14:31:38"
"613312230","Memminger Platz",48.181013,11.506254,NA,5,0,"DE","Muenchen","nextbike","2026-06-25 14:31:38"
"613312231","Olympia Einkaufszentrum",48.182376,11.528717,NA,6,0,"DE","Muenchen","nextbike","2026-06-25 14:31:38"
"613312233","Anhalter Platz",48.187042,11.561555,NA,8,0,"DE","Muenchen","nextbike","2026-06-25 14:31:38"
"613312234","Am Hart U",48.197716,11.57208,NA,1,0,"DE","Muenchen","nextbike","2026-06-25 14:31:38"
"613312236","Oberwiesenfeld U-Bahn West",48.186592,11.546192,NA,13,0,"DE","Muenchen","nextbike","2026-06-25 14:31:38"
"613312237","Wilhelm-Hertz-Straße",48.175945,11.585842,NA,4,0,"DE","Muenchen","nextbike","2026-06-25 14:31:38"
"613312238","Schwedenstraße",48.169586,11.603003,NA,8,0,"DE","Muenchen","nextbike","2026-06-25 14:31:38"
"613312239","Wiltrudenstraße",48.167377,11.59151,NA,4,0,"DE","Muenchen","nextbike","2026-06-25 14:31:38"
"613312240","Alte Heide U",48.177842,11.602486,NA,2,0,"DE","Muenchen","nextbike","2026-06-25 14:31:38"
"613312241","Parzivalplatz",48.171033,11.584974,NA,9,0,"DE","Muenchen","nextbike","2026-06-25 14:31:38"
"613312242","Kieferngarten",48.203392,11.612684,NA,1,0,"DE","Muenchen","nextbike","2026-06-25 14:31:38"
"613312243","St. Emmeram",48.176074,11.631513,NA,2,0,"DE","Muenchen","nextbike","2026-06-25 14:31:38"
"613312244","Kufsteiner Platz",48.14997,11.60174,NA,1,0,"DE","Muenchen","nextbike","2026-06-25 14:31:38"
"613312245","Effnerplatz Nordost",48.152697,11.614833,NA,0,0,"DE","Muenchen","nextbike","2026-06-25 14:31:38"
"613312246","Baumkirchnerstraße",48.128501,11.630724,NA,6,0,"DE","Muenchen","nextbike","2026-06-25 14:31:38"
"613312247","Ampfingstraße",48.130363,11.615767,NA,0,0,"DE","Muenchen","nextbike","2026-06-25 14:31:38"
"613312248","Martin-Empl-Ring",48.140954,11.682629,NA,0,0,"DE","Muenchen","nextbike","2026-06-25 14:31:38"
"613312249","Lehrer-Wirth-Straße",48.129475,11.694919,NA,0,0,"DE","Muenchen","nextbike","2026-06-25 14:31:38"
"613312250","Selma-Lageröf-Straße",48.129964,11.702747,NA,7,0,"DE","Muenchen","nextbike","2026-06-25 14:31:38"
"613312251","U-Bahn Moosfeld",48.131133,11.671374,NA,2,0,"DE","Muenchen","nextbike","2026-06-25 14:31:38"
"613312252","Wardeinstraße",48.12467,11.655903,NA,1,0,"DE","Muenchen","nextbike","2026-06-25 14:31:38"
"613312253","Karpfenstraße",48.122928,11.662454,NA,5,0,"DE","Muenchen","nextbike","2026-06-25 14:31:38"
"613312254","Feldbergstraße",48.108699,11.663219,NA,4,0,"DE","Muenchen","nextbike","2026-06-25 14:31:38"
"613312255","Postweg",48.117954,11.68393,NA,9,0,"DE","Muenchen","nextbike","2026-06-25 14:31:38"
"613312256","Spertentalstraße",48.118144,11.670033,NA,4,0,"DE","Muenchen","nextbike","2026-06-25 14:31:38"
"613312257","Georg-Kerschensteiner-Straße",48.132961,11.697017,NA,0,0,"DE","Muenchen","nextbike","2026-06-25 14:31:38"
"613312258","Messestadt Ost U-Bahn",48.13336,11.703236,NA,1,0,"DE","Muenchen","nextbike","2026-06-25 14:31:38"
"613312259","Friesplatz",48.100622,11.672228,NA,5,0,"DE","Muenchen","nextbike","2026-06-25 14:31:38"
"613312260","Ungsteiner Straße",48.114724,11.597168,NA,1,0,"DE","Muenchen","nextbike","2026-06-25 14:31:38"
"613312261","Ramersdorf",48.115401,11.612403,NA,5,0,"DE","Muenchen","nextbike","2026-06-25 14:31:38"
"613312262","Führichstraße",48.116431,11.614696,NA,1,0,"DE","Muenchen","nextbike","2026-06-25 14:31:38"
"613312263","Thomasiusplatz",48.11535,11.603387,NA,2,0,"DE","Muenchen","nextbike","2026-06-25 14:31:38"
"613312264","Balanstraße",48.109407,11.603445,NA,6,0,"DE","Muenchen","nextbike","2026-06-25 14:31:38"
"613312265","Georg-Brauchle-Haus",48.109805,11.63923,NA,9,0,"DE","Muenchen","nextbike","2026-06-25 14:31:38"
"613312266","Hochäckerstraße",48.101156,11.606903,NA,8,0,"DE","Muenchen","nextbike","2026-06-25 14:31:38"
"613312267","Sudermannallee",48.097677,11.65268,NA,8,0,"DE","Muenchen","nextbike","2026-06-25 14:31:38"
"613312268","Hermann-Pünder-Straße",48.089132,11.636949,NA,3,0,"DE","Muenchen","nextbike","2026-06-25 14:31:38"
"613312269","Maria-Wimmer-Straße",48.08516,11.661418,NA,7,0,"DE","Muenchen","nextbike","2026-06-25 14:31:38"
"613312270","Woferlstraße",48.108984,11.619507,NA,3,0,"DE","Muenchen","nextbike","2026-06-25 14:31:38"
"613312271","Karl-Preis-Platz",48.118064,11.610177,NA,1,0,"DE","Muenchen","nextbike","2026-06-25 14:31:38"
"613312272","St.-Martin-Straße Ost",48.119507,11.600463,NA,0,0,"DE","Muenchen","nextbike","2026-06-25 14:31:38"
"613312273","Neuperlach Zentrum",48.100853,11.646309,NA,6,0,"DE","Muenchen","nextbike","2026-06-25 14:31:38"
"613312274","Nawiaskystraße",48.106409,11.636608,NA,13,0,"DE","Muenchen","nextbike","2026-06-25 14:31:38"
"613312275","Neuer Südfriedhof",48.101227,11.622042,NA,10,0,"DE","Muenchen","nextbike","2026-06-25 14:31:38"
"613312276","Schlierseestraße",48.115517,11.592303,NA,1,0,"DE","Muenchen","nextbike","2026-06-25 14:31:38"
"613312277","Pöllatstraße",48.105517,11.591138,NA,5,0,"DE","Muenchen","nextbike","2026-06-25 14:31:38"
"613312278","Lincolnstraße",48.095167,11.59126,NA,7,0,"DE","Muenchen","nextbike","2026-06-25 14:31:38"
"613312279","Minnewitstraße",48.086997,11.599204,NA,8,0,"DE","Muenchen","nextbike","2026-06-25 14:31:38"
"613312281","Ostfriedhof",48.117519,11.582032,NA,4,0,"DE","Muenchen","nextbike","2026-06-25 14:31:38"
"613312282","St. Martin-Straße S-Bahn",48.118254,11.594671,NA,0,0,"DE","Muenchen","nextbike","2026-06-25 14:31:38"
"613312283","Tegernseer Platz",48.115501,11.580741,NA,0,0,"DE","Muenchen","nextbike","2026-06-25 14:31:38"
"613312284","Scharfreiterplatz",48.102482,11.595012,NA,5,0,"DE","Muenchen","nextbike","2026-06-25 14:31:38"
"613312285","Sintpertstraße",48.110642,11.589249,NA,0,0,"DE","Muenchen","nextbike","2026-06-25 14:31:38"
"613312286","Zugspitzplätzchen",48.116522,11.58336,NA,4,0,"DE","Muenchen","nextbike","2026-06-25 14:31:38"
"613312287","Grünspitz",48.113202,11.576828,NA,3,0,"DE","Muenchen","nextbike","2026-06-25 14:31:38"
"613312288","Am Bergsteig",48.118881,11.579973,NA,7,0,"DE","Muenchen","nextbike","2026-06-25 14:31:38"
"613312289","Theodolindenplatz",48.090711,11.558066,NA,4,0,"DE","Muenchen","nextbike","2026-06-25 14:31:38"
"613312290","Rolf-Pinegger-Straße",48.12582,11.47709,NA,8,0,"DE","Muenchen","nextbike","2026-06-25 14:31:38"
"613312291","Pasing Bahnhof Süd",48.149102,11.459789,NA,1,0,"DE","Muenchen","nextbike","2026-06-25 14:31:38"
"613312292","Mitterfeldstraße",48.137897,11.483132,NA,1,0,"DE","Muenchen","nextbike","2026-06-25 14:31:38"
"613312293","Veldener Straße",48.145169,11.479889,NA,2,0,"DE","Muenchen","nextbike","2026-06-25 14:31:38"
"613312294","Avenariusplatz",48.142389,11.450851,NA,7,0,"DE","Muenchen","nextbike","2026-06-25 14:31:38"
"613312295","Polkostraße",48.159762,11.445722,NA,8,0,"DE","Muenchen","nextbike","2026-06-25 14:31:38"
"613312296","Am Knie",48.142045,11.474476,NA,4,0,"DE","Muenchen","nextbike","2026-06-25 14:31:38"
"613312297","Mainaustraße",48.148679,11.434234,NA,2,0,"DE","Muenchen","nextbike","2026-06-25 14:31:38"
"613312298","Fritz-Bauer-Straße",48.141112,11.422564,NA,6,0,"DE","Muenchen","nextbike","2026-06-25 14:31:38"
"613312299","Wiesentfelser Straße West",48.146347,11.413553,NA,7,0,"DE","Muenchen","nextbike","2026-06-25 14:31:38"
"613312300","Wiesentfelser Straße Ost",48.147422,11.42077,NA,3,0,"DE","Muenchen","nextbike","2026-06-25 14:31:38"
"613312301","Sportanlagen Freiham",48.142403,11.403044,NA,6,0,"DE","Muenchen","nextbike","2026-06-25 14:31:38"
"613312302","Riesenburgstraße",48.150968,11.412909,NA,7,0,"DE","Muenchen","nextbike","2026-06-25 14:31:38"
"613312303","Leinweberweg",48.176321,11.417194,NA,8,0,"DE","Muenchen","nextbike","2026-06-25 14:31:38"
"613312304","Zwiedineckstraße",48.180353,11.464696,NA,5,0,"DE","Muenchen","nextbike","2026-06-25 14:31:38"
"613312305","Korbinian-Beer-Straße",48.183444,11.478886,NA,7,0,"DE","Muenchen","nextbike","2026-06-25 14:31:38"
"613312306","Manzostraße",48.183831,11.48817,NA,3,0,"DE","Muenchen","nextbike","2026-06-25 14:31:38"
"613312307","SV Untermenzing",48.176131,11.466134,NA,3,0,"DE","Muenchen","nextbike","2026-06-25 14:31:38"
"613312308","Augustin-Rösch-Straße",48.200656,11.564274,NA,3,0,"DE","Muenchen","nextbike","2026-06-25 14:31:38"
"613312309","Feldmochinger Anger",48.209216,11.544466,NA,2,0,"DE","Muenchen","nextbike","2026-06-25 14:31:38"
"613312310","Hasenbergl",48.213754,11.55654,NA,3,0,"DE","Muenchen","nextbike","2026-06-25 14:31:38"
"613312311","Feldmoching I",48.213674,11.540333,NA,2,0,"DE","Muenchen","nextbike","2026-06-25 14:31:38"
"613312312","Dülferstraße U West",48.213283,11.561993,NA,6,0,"DE","Muenchen","nextbike","2026-06-25 14:31:38"
"613312313","Ittlingerstraße",48.208336,11.555278,NA,8,0,"DE","Muenchen","nextbike","2026-06-25 14:31:38"
"613312314","Eduard-Spranger-Straße",48.207722,11.550141,NA,6,0,"DE","Muenchen","nextbike","2026-06-25 14:31:38"
"613312315","Fachnerstraße",48.131088,11.509525,NA,9,0,"DE","Muenchen","nextbike","2026-06-25 14:31:38"
"613510037","Geroltstraße",48.131332,11.538334,NA,0,0,"DE","Muenchen","nextbike","2026-06-25 14:31:38"
"623988514","Tollwood festival ( Olympiapark 1 )",48.163694,11.552009,NA,3,0,"DE","Muenchen","nextbike","2026-06-25 14:31:38"
"623988565","Tollwood festival ( Olympiapark 2 )",48.163235,11.552632,NA,17,0,"DE","Muenchen","nextbike","2026-06-25 14:31:38"
"624056845","Eventstation Marriott Munich City West",48.140783,11.525731,NA,19,0,"DE","Muenchen","nextbike","2026-06-25 14:31:38"
"50419","Berliner Platz StadtLastenRad",51.458744,7.004194,NA,1,0,"DE","Ruhrgebiet (metropolradruhr)","nextbike","2026-06-25 14:31:38"
"50425","Rüttenscheider Stern StadtLastenRad",51.438193,7.005667,NA,1,0,"DE","Ruhrgebiet (metropolradruhr)","nextbike","2026-06-25 14:31:38"
"98987","Stadtwaldplatz StadtLastenRad",51.419811,7.024544,NA,0,0,"DE","Ruhrgebiet (metropolradruhr)","nextbike","2026-06-25 14:31:38"
"113462","Grendplatz StadtLastenRad",51.446291,7.075067,NA,0,0,"DE","Ruhrgebiet (metropolradruhr)","nextbike","2026-06-25 14:31:38"
"113463","Essen Borbeck Bahnhof StadtLastenRad",51.472883,6.949319,NA,1,0,"DE","Ruhrgebiet (metropolradruhr)","nextbike","2026-06-25 14:31:38"
"115216","Gervinusstraße StadtLastenRad",51.449527,6.972992,NA,0,0,"DE","Ruhrgebiet (metropolradruhr)","nextbike","2026-06-25 14:31:38"
"121674","Gemarkenplatz StadtLastenRad",51.441771,6.997787,NA,1,0,"DE","Ruhrgebiet (metropolradruhr)","nextbike","2026-06-25 14:31:38"
"146999","Universität StadtLastenRad",51.464973,7.001703,NA,0,0,"DE","Ruhrgebiet (metropolradruhr)","nextbike","2026-06-25 14:31:38"
"147004","Mobilstation Parkfriedhof StadtLastenRad",51.447384,7.044082,NA,1,0,"DE","Ruhrgebiet (metropolradruhr)","nextbike","2026-06-25 14:31:38"
"147012","Mobilstation Florastraße StadtLastenRad",51.426604,7.002749,NA,1,0,"DE","Ruhrgebiet (metropolradruhr)","nextbike","2026-06-25 14:31:38"
"31364543","Mobilstation Kupferdreh StadtLastenRad",51.391658,7.080125,NA,1,0,"DE","Ruhrgebiet (metropolradruhr)","nextbike","2026-06-25 14:31:38"
"397909001","Eltingstraße StadtLastenRad",51.466384,7.013751,NA,1,0,"DE","Ruhrgebiet (metropolradruhr)","nextbike","2026-06-25 14:31:38"
"474985643","Weserstraße StadtLastenRad",51.437134,7.032763,NA,1,0,"DE","Ruhrgebiet (metropolradruhr)","nextbike","2026-06-25 14:31:38"
"499068852","Katernberger Markt StadtLastenRad",51.497417,7.048187,NA,0,0,"DE","Ruhrgebiet (metropolradruhr)","nextbike","2026-06-25 14:31:38"
"499069127","Isenbergstraße / Witteringstraße StadtLastenRad",51.441517,7.016203,NA,1,0,"DE","Ruhrgebiet (metropolradruhr)","nextbike","2026-06-25 14:31:38"
"499941260","Altenessen Mitte StadtLastenRad",51.494972,7.007189,NA,1,0,"DE","Ruhrgebiet (metropolradruhr)","nextbike","2026-06-25 14:31:38"
"555065328"," Haarzopf/Erbach StadtLastenRad",51.419958,6.958525,NA,1,0,"DE","Ruhrgebiet (metropolradruhr)","nextbike","2026-06-25 14:31:38"
"555066116","Eventstation SLR",51.463234,7.00846,NA,0,0,"DE","Ruhrgebiet (metropolradruhr)","nextbike","2026-06-25 14:31:38"
"607620114","Ernestinenstr. StadtLastenRad",51.467618,7.04529,NA,0,0,"DE","Ruhrgebiet (metropolradruhr)","nextbike","2026-06-25 14:31:38"
"31883","Metzstraße",54.3255159,10.116875,20,1,19,"DE","Kiel/KielRegion (SprottenFlotte)","Donkey Republic","2026-06-25 14:31:38"
"34817","Lindenstraße",54.2279082,10.2707972,20,1,19,"DE","Kiel/KielRegion (SprottenFlotte)","Donkey Republic","2026-06-25 14:31:38"
"29147","Strandbad Lanker See (April - Oktober)",54.2187212,10.2815616,20,5,15,"DE","Kiel/KielRegion (SprottenFlotte)","Donkey Republic","2026-06-25 14:31:38"
"30120","Martinshaus",54.2901357,9.6536059,15,1,14,"DE","Kiel/KielRegion (SprottenFlotte)","Donkey Republic","2026-06-25 14:31:38"
"24380","Vinetaplatz",54.311417,10.146972,20,0,20,"DE","Kiel/KielRegion (SprottenFlotte)","Donkey Republic","2026-06-25 14:31:38"
"24370","Alter Markt",54.3230025,10.1395802,15,13,2,"DE","Kiel/KielRegion (SprottenFlotte)","Donkey Republic","2026-06-25 14:31:38"
"30924","Anleger Bellevue",54.3443118,10.1547354,20,9,10,"DE","Kiel/KielRegion (SprottenFlotte)","Donkey Republic","2026-06-25 14:31:38"
"34975","Schlossgarten Plön",54.1543136,10.4097434,10,0,10,"DE","Kiel/KielRegion (SprottenFlotte)","Donkey Republic","2026-06-25 14:31:38"
"29946","Wörthstrasse",54.3237645,10.1186942,10,0,9,"DE","Kiel/KielRegion (SprottenFlotte)","Donkey Republic","2026-06-25 14:31:38"
"34970","Lehmkaten - Altenholz",54.4111841,10.1265889,16,4,12,"DE","Kiel/KielRegion (SprottenFlotte)","Donkey Republic","2026-06-25 14:31:38"
"24374","Holsten-/Hafenstrasse",54.321,10.135389,20,7,13,"DE","Kiel/KielRegion (SprottenFlotte)","Donkey Republic","2026-06-25 14:31:38"
"27183","Schilksee Olympiazentrum",54.4254534,10.1682239,30,0,27,"DE","Kiel/KielRegion (SprottenFlotte)","Donkey Republic","2026-06-25 14:31:38"
"27448","Wendtorf Marina",54.4190661,10.2878796,30,3,24,"DE","Kiel/KielRegion (SprottenFlotte)","Donkey Republic","2026-06-25 14:31:38"
"31834","Waterkant",54.3796994,10.1626328,20,1,19,"DE","Kiel/KielRegion (SprottenFlotte)","Donkey Republic","2026-06-25 14:31:38"
"24381","Westring/Eckernförder Str.",54.328543,10.117925,30,3,27,"DE","Kiel/KielRegion (SprottenFlotte)","Donkey Republic","2026-06-25 14:31:38"
"24428","Busparkplatz Sauerstrasse / Schulzentrum Süd",54.44914,9.84185,25,5,20,"DE","Kiel/KielRegion (SprottenFlotte)","Donkey Republic","2026-06-25 14:31:38"
"24413","Bernhard-Minetti-Platz",54.337864,10.133126,20,0,19,"DE","Kiel/KielRegion (SprottenFlotte)","Donkey Republic","2026-06-25 14:31:38"
"24416","Rungholtplatz",54.361297,10.076831,30,5,25,"DE","Kiel/KielRegion (SprottenFlotte)","Donkey Republic","2026-06-25 14:31:38"
"24470","Fegetasche",54.153741,10.449131,20,15,5,"DE","Kiel/KielRegion (SprottenFlotte)","Donkey Republic","2026-06-25 14:31:38"
"24384","CAU Universitätsbibliothek",54.346612,10.112408,40,2,37,"DE","Kiel/KielRegion (SprottenFlotte)","Donkey Republic","2026-06-25 14:31:38"
"31567","Wendtorf Bottsand",54.4266219,10.2957743,20,1,19,"DE","Kiel/KielRegion (SprottenFlotte)","Donkey Republic","2026-06-25 14:31:38"
"24424","Grüner Kranz",54.3078903,9.6500663,20,7,12,"DE","Kiel/KielRegion (SprottenFlotte)","Donkey Republic","2026-06-25 14:31:38"
"24397","Hauptbahnhof",54.315972,10.132278,42,17,26,"DE","Kiel/KielRegion (SprottenFlotte)","Donkey Republic","2026-06-25 14:31:38"
"32303","Brekendorf, Wanderparkplatz",54.423647,9.6508862,8,3,5,"DE","Kiel/KielRegion (SprottenFlotte)","Donkey Republic","2026-06-25 14:31:38"
"29964","Langer Rehm P+R",54.3391019,10.1901603,10,0,10,"DE","Kiel/KielRegion (SprottenFlotte)","Donkey Republic","2026-06-25 14:31:38"
"24454","Freilichtmuseum Molfsee",54.274827,10.074943,10,1,9,"DE","Kiel/KielRegion (SprottenFlotte)","Donkey Republic","2026-06-25 14:31:38"
"30434","Felde Gemeindezentrum",54.2995516,9.9338166,18,5,13,"DE","Kiel/KielRegion (SprottenFlotte)","Donkey Republic","2026-06-25 14:31:38"
"32302","Brekendorf, Kammberg",54.421205,9.6419802,8,6,2,"DE","Kiel/KielRegion (SprottenFlotte)","Donkey Republic","2026-06-25 14:31:38"
"31800","KiWo Rathaus/Opernhaus",54.3236771,10.1331922,20,7,13,"DE","Kiel/KielRegion (SprottenFlotte)","Donkey Republic","2026-06-25 14:31:38"
"24396","Rathaus Waisenhofstrasse",54.321722,10.132444,25,1,24,"DE","Kiel/KielRegion (SprottenFlotte)","Donkey Republic","2026-06-25 14:31:38"
"31635","Nordkolleg Rendsburg ",54.2891546,9.6460424,30,6,24,"DE","Kiel/KielRegion (SprottenFlotte)","Donkey Republic","2026-06-25 14:31:38"
"24451","Bahnhof Preetz",54.2336954,10.276274,30,0,30,"DE","Kiel/KielRegion (SprottenFlotte)","Donkey Republic","2026-06-25 14:31:38"
"29941","KiWo Nordeingang Finanzministerium ",54.3344792,10.1513209,30,8,21,"DE","Kiel/KielRegion (SprottenFlotte)","Donkey Republic","2026-06-25 14:31:38"
"24386","Fähranleger Möltenort",54.375655,10.1947797,15,5,10,"DE","Kiel/KielRegion (SprottenFlotte)","Donkey Republic","2026-06-25 14:31:38"
"29933","KiWo Yachthafen",54.340022,10.1569103,20,1,19,"DE","Kiel/KielRegion (SprottenFlotte)","Donkey Republic","2026-06-25 14:31:38"
"24369","Alte Mu/Brunswiker Str.",54.327583,10.1415,15,1,13,"DE","Kiel/KielRegion (SprottenFlotte)","Donkey Republic","2026-06-25 14:31:38"
"24457","Studiale",54.3378795,10.1244324,16,0,15,"DE","Kiel/KielRegion (SprottenFlotte)","Donkey Republic","2026-06-25 14:31:38"
"24392","Andreas-Gayk-Strasse",54.318269,10.1340143,17,3,14,"DE","Kiel/KielRegion (SprottenFlotte)","Donkey Republic","2026-06-25 14:31:38"
"27441","Fiefbergen - Bushaltestelle",54.3790802,10.3430016,15,5,10,"DE","Kiel/KielRegion (SprottenFlotte)","Donkey Republic","2026-06-25 14:31:38"
"29934","KiWo ZBW",54.3379504,10.1558699,20,5,16,"DE","Kiel/KielRegion (SprottenFlotte)","Donkey Republic","2026-06-25 14:31:38"
"24376","Kirchhofallee",54.316194,10.120583,20,9,10,"DE","Kiel/KielRegion (SprottenFlotte)","Donkey Republic","2026-06-25 14:31:38"
"24438","Förde Sparkasse Preetz",54.2358998,10.2809246,20,0,20,"DE","Kiel/KielRegion (SprottenFlotte)","Donkey Republic","2026-06-25 14:31:38"
"24403","Hafen Laboe",54.4033599,10.2196891,30,1,28,"DE","Kiel/KielRegion (SprottenFlotte)","Donkey Republic","2026-06-25 14:31:38"
"24401","Dataport/FHVD",54.4020262,10.1281108,30,3,27,"DE","Kiel/KielRegion (SprottenFlotte)","Donkey Republic","2026-06-25 14:31:38"
"24405","Marine-Ehrenmal",54.4119162,10.2287137,20,2,18,"DE","Kiel/KielRegion (SprottenFlotte)","Donkey Republic","2026-06-25 14:31:38"
"35037","KiWo Schlossgarten/ Prinzengarten (Südeingang",54.3257081,10.143807,25,4,21,"DE","Kiel/KielRegion (SprottenFlotte)","Donkey Republic","2026-06-25 14:31:38"
"24399","Exerzierplatz",54.321583,10.128389,31,0,31,"DE","Kiel/KielRegion (SprottenFlotte)","Donkey Republic","2026-06-25 14:31:38"
"29936","KiWo Karolinenweg",54.3363239,10.1521765,20,6,13,"DE","Kiel/KielRegion (SprottenFlotte)","Donkey Republic","2026-06-25 14:31:38"
"24471","Krausstrasse",54.333677,10.122391,25,9,16,"DE","Kiel/KielRegion (SprottenFlotte)","Donkey Republic","2026-06-25 14:31:38"
"24391","Blücherplatz",54.341722,10.136861,30,1,29,"DE","Kiel/KielRegion (SprottenFlotte)","Donkey Republic","2026-06-25 14:31:38"
"26805","Amt Eidertal",54.281617,10.0794572,15,4,11,"DE","Kiel/KielRegion (SprottenFlotte)","Donkey Republic","2026-06-25 14:31:38"
"31586","Hafenplatz (Opt. Station)",54.4038794,10.2182377,4,1,3,"DE","Kiel/KielRegion (SprottenFlotte)","Donkey Republic","2026-06-25 14:31:38"
"24373","Christian-Albrechts-Platz",54.3392217,10.1231946,30,2,28,"DE","Kiel/KielRegion (SprottenFlotte)","Donkey Republic","2026-06-25 14:31:38"
"24367","Anleger Dietrichsdorf",54.329611,10.178556,30,12,18,"DE","Kiel/KielRegion (SprottenFlotte)","Donkey Republic","2026-06-25 14:31:38"
"24412","MEKUN Olympiahochhaus",54.3552685,10.131253,30,25,5,"DE","Kiel/KielRegion (SprottenFlotte)","Donkey Republic","2026-06-25 14:31:38"
"24400","Anleger Friedrichsort",54.390373,10.177173,30,0,30,"DE","Kiel/KielRegion (SprottenFlotte)","Donkey Republic","2026-06-25 14:31:38"
"30515","Alte Lübecker Chaussee",54.3045643,10.1254699,15,6,9,"DE","Kiel/KielRegion (SprottenFlotte)","Donkey Republic","2026-06-25 14:31:38"
"24465","UKSH",54.329415,10.14013,25,0,24,"DE","Kiel/KielRegion (SprottenFlotte)","Donkey Republic","2026-06-25 14:31:38"
"24375","Hörnbad",54.308643,10.135253,30,26,4,"DE","Kiel/KielRegion (SprottenFlotte)","Donkey Republic","2026-06-25 14:31:38"
"24433","Langebrückstrasse / Commerzbank ",54.47254,9.8363,25,10,15,"DE","Kiel/KielRegion (SprottenFlotte)","Donkey Republic","2026-06-25 14:31:38"
"24378","Muthesius Kunsthochschule",54.327389,10.128333,20,0,20,"DE","Kiel/KielRegion (SprottenFlotte)","Donkey Republic","2026-06-25 14:31:38"
"26224"," Wik, Kanalfähre - Busstation",54.3655075,10.1315889,20,0,19,"DE","Kiel/KielRegion (SprottenFlotte)","Donkey Republic","2026-06-25 14:31:38"
"24421","Bahnhof Rendsburg",54.3020355,9.6704659,20,4,16,"DE","Kiel/KielRegion (SprottenFlotte)","Donkey Republic","2026-06-25 14:31:38"
"27446","Stoltenberg Dörpshus",54.3446439,10.3475835,15,4,11,"DE","Kiel/KielRegion (SprottenFlotte)","Donkey Republic","2026-06-25 14:31:38"
"26209","Kanalfähre Holtenau",54.3687939,10.1339529,20,4,16,"DE","Kiel/KielRegion (SprottenFlotte)","Donkey Republic","2026-06-25 14:31:38"
"27375","Holzbunge",54.3797671,9.7075266,15,1,14,"DE","Kiel/KielRegion (SprottenFlotte)","Donkey Republic","2026-06-25 14:31:38"
"30024","Bahnhof Raisdorf",54.2811376,10.2430089,15,7,8,"DE","Kiel/KielRegion (SprottenFlotte)","Donkey Republic","2026-06-25 14:31:38"
"24385","Dreiecksplatz",54.328528,10.134417,15,1,13,"DE","Kiel/KielRegion (SprottenFlotte)","Donkey Republic","2026-06-25 14:31:38"
"24383","CAU Sportstätten",54.343444,10.111139,35,13,22,"DE","Kiel/KielRegion (SprottenFlotte)","Donkey Republic","2026-06-25 14:31:38"
"31353","Falkensteiner Strand (Apr-Okt)",54.401024,10.1904627,20,1,18,"DE","Kiel/KielRegion (SprottenFlotte)","Donkey Republic","2026-06-25 14:31:38"
"29935","KiWo IfW",54.3373631,10.1541775,20,2,18,"DE","Kiel/KielRegion (SprottenFlotte)","Donkey Republic","2026-06-25 14:31:38"
"24423","Fussgängertunnel Nordseite",54.291789,9.663878,20,0,20,"DE","Kiel/KielRegion (SprottenFlotte)","Donkey Republic","2026-06-25 14:31:38"
"24466","Sandkrug",54.31634,10.14607,15,5,11,"DE","Kiel/KielRegion (SprottenFlotte)","Donkey Republic","2026-06-25 14:31:38"
"27567","Lutterbek",54.3923026,10.2761645,15,1,14,"DE","Kiel/KielRegion (SprottenFlotte)","Donkey Republic","2026-06-25 14:31:38"
"24372","Bahnhof Suchsdorf",54.3498224,10.0909467,20,0,20,"DE","Kiel/KielRegion (SprottenFlotte)","Donkey Republic","2026-06-25 14:31:38"
"27449","Wisch Heidkate",54.4338561,10.3192379,30,12,18,"DE","Kiel/KielRegion (SprottenFlotte)","Donkey Republic","2026-06-25 14:31:38"
"35039","KiWo Lorentzendamm ab 19.6.",54.3265649,10.1427023,10,0,10,"DE","Kiel/KielRegion (SprottenFlotte)","Donkey Republic","2026-06-25 14:31:38"
"24389","Hansastr./Gutenbergstr.",54.332111,10.124861,20,0,16,"DE","Kiel/KielRegion (SprottenFlotte)","Donkey Republic","2026-06-25 14:31:38"
"24453","Kronshagen Bahnhof",54.331388,10.083113,25,4,22,"DE","Kiel/KielRegion (SprottenFlotte)","Donkey Republic","2026-06-25 14:31:38"
